{"version": 0.6, "generator": "Overpass API 0.7.62.11 87bfad18", "osm3s": {"timestamp_osm_base": "2026-05-13T12:51:02Z", "timestamp_areas_base": "2026-05-12T07:36:16Z", "copyright": "The data included in this document is from www.openstreetmap.org. The data is made available under ODbL."}, "elements": [{"type": "node", "id": 2161096396, "lat": 49.2233907, "lon": 6.0111466, "tags": {"addr:housenumber": "117", "addr:street": "Rue de Franchepr\u00e9", "name": "Association ReptiGo", "ref": "RG2", "ref:FR:SIRET": "89363404800019", "telecom": "data_center", "website": "https://reptigo.fr"}}, {"type": "node", "id": 3979838931, "lat": 45.7826171, "lon": 4.8657454, "tags": {"description": "N\u0153ud d'\u00e9change Internet", "description:en": "Internet exchange point", "name": "LyonIX 1 IN2P3", "telecom": "data_center"}}, {"type": "node", "id": 4975162489, "lat": 48.1098669, "lon": -1.6372955, "tags": {"addr:city": "Rennes", "addr:housenumber": "40", "addr:postcode": "35000", "addr:street": "Rue Jean-Marie Huchet", "description": "data center", "operator": "Cogent", "telecom": "data_center"}}, {"type": "node", "id": 6015635281, "lat": 48.8561326, "lon": 2.3833044, "tags": {"addr:city": "Paris", "addr:housenumber": "137", "addr:postcode": "75011", "addr:street": "Boulevard Voltaire", "check_date": "2024-09-22", "description": "data center", "name": "Telehouse Paris Voltaire", "telecom": "data_center"}}, {"type": "node", "id": 6015712298, "lat": 47.8237498, "lon": 1.9201411, "tags": {"addr:city": "Ardon", "addr:housenumber": "770", "addr:postcode": "45160", "addr:street": "Avenue de la Pomme de Pin", "description": "data center", "name": "Scitis-Zen DataCenter Hitachi", "telecom": "data_center"}}, {"type": "node", "id": 6016440346, "lat": 48.9046324, "lon": 2.2579494, "tags": {"addr:city": "Courbevoie", "addr:housenumber": "130", "addr:postcode": "92400", "addr:street": "Boulevard de Verdun", "description": "data center", "name": "TelecityGroup Paris Courbevoie", "telecom": "data_center"}}, {"type": "node", "id": 6102417414, "lat": 48.9039127, "lon": 2.2579948, "tags": {"addr:city": "Courbevoie", "addr:housenumber": "124", "addr:postcode": "92400", "addr:street": "Boulevard de Verdun", "name": "SFR Netcenter Courbevoie", "operator": "SFR", "operator:wikidata": "Q218765", "telecom": "data_center"}}, {"type": "node", "id": 6102460998, "lat": 48.5686359, "lon": 7.7821507, "tags": {"addr:city": "Strasbourg", "addr:housenumber": "1", "addr:postcode": "67000", "addr:street": "Rue du Havre", "description": "data center", "name": "SFR Netcenter Strasbourg", "operator": "SFR", "operator:wikidata": "Q218765", "telecom": "data_center"}}, {"type": "node", "id": 6102483146, "lat": 48.8697319, "lon": 2.3441419, "tags": {"contact:city": "Paris", "contact:housenumber": "38", "contact:postcode": "75002", "contact:street": "Rue des Je\u00fbneurs", "description": "data center", "name": "Telehouse 1", "telecom": "data_center"}}, {"type": "node", "id": 6102606448, "lat": 48.8152095, "lon": 2.4030379, "tags": {"addr:city": "Ivry-sur-Seine", "addr:housenumber": "11;15", "addr:postcode": "94200", "addr:street": "Rue Galil\u00e9e", "description": "data center", "name": "Interxion PAR6", "operator": "Digital Realty", "operator:wikidata": "Q5275969", "telecom": "data_center"}}, {"type": "node", "id": 6102739953, "lat": 45.9367016, "lon": 6.6306129, "tags": {"addr:city": "Sallanches", "addr:postcode": "74700", "description": "data center", "name": "THD Global 1", "telecom": "data_center"}}, {"type": "node", "id": 6103694303, "lat": 44.8196658, "lon": -0.5055491, "tags": {"addr:housenumber": "26", "addr:street": "Avenue du Domaine de Vialle", "description": "data center", "name": "TDF ProxiCenter Bordeaux Bouliac", "telecom": "data_center"}}, {"type": "node", "id": 6110614473, "lat": 50.6485978, "lon": 3.0399115, "tags": {"addr:city": "Lambersart", "addr:housenumber": "35", "addr:postcode": "59130", "addr:street": "Rue Gambetta", "name": "TDF ProxiCenter Lille Lambersart", "telecom": "data_center"}}, {"type": "node", "id": 6110817631, "lat": 48.1246847, "lon": -1.6276443, "tags": {"addr:city": "Cesson-S\u00e9vign\u00e9", "addr:housenumber": "2", "addr:postcode": "35510", "addr:street": "Rue du Clos Courtel", "description": "data center", "name": "TDF ProxiCenter de Rennes-Cesson", "telecom": "data_center"}}, {"type": "node", "id": 6121625449, "lat": 48.984885, "lon": 2.509284, "tags": {"addr:city": "Roissy-en-France", "addr:housenumber": "167", "addr:postcode": "95700", "addr:street": "Rue de la Belle \u00c9toile", "description": "data center", "name": "Equinix Paris Roissy - PA1", "operator": "Equinix", "operator:wikidata": "Q851641", "telecom": "data_center"}}, {"type": "node", "id": 6121864803, "lat": 48.8972718, "lon": 2.3221778, "tags": {"addr:city": "Paris", "addr:housenumber": "63", "addr:postcode": "75017", "addr:street": "Boulevard Bessi\u00e8res", "name": "Colt Paris 2", "telecom": "data_center"}}, {"type": "node", "id": 6121873072, "lat": 48.8352252, "lon": 2.3981101, "tags": {"contact:city": "Paris", "contact:housenumber": "60", "contact:postcode": "75012", "contact:street": "Rue de Wattignies", "description": "data center", "name": "Colt Paris 1", "telecom": "data_center"}}, {"type": "node", "id": 6121906640, "lat": 45.7588426, "lon": 4.8675607, "tags": {"description": "data center", "name": "Colt Lyon", "telecom": "data_center"}}, {"type": "node", "id": 6121968632, "lat": 45.7242762, "lon": 4.8168005, "tags": {"addr:housenumber": "25C", "telecom": "data_center"}}, {"type": "node", "id": 6174610289, "lat": 48.7944494, "lon": 2.0363102, "tags": {"addr:city": "Montigny le Bretonneux", "addr:postcode": "78180", "addr:street": "Rue Jean-Pierre Timbaud", "description": "data center", "name": "Bouygues Telecom Montigny-le-Bretonneux", "operator": "Bouygues Telecom", "operator:wikidata": "Q581438", "telecom": "data_center"}}, {"type": "node", "id": 6174794770, "lat": 48.9022393, "lon": 2.3695304, "tags": {"addr:city": "Aubervilliers", "addr:housenumber": "45", "addr:postcode": "93300", "addr:street": "Avenue Victor Hugo", "description": "data center", "name": "Equinix PA7", "operator": "Equinix", "operator:wikidata": "Q851641", "ref": "PA7", "telecom": "data_center"}}, {"type": "node", "id": 6175277339, "lat": 47.2026402, "lon": -1.5504397, "tags": {"addr:city": "Nantes", "addr:housenumber": "32", "addr:postcode": "44000", "addr:street": "Boulevard Victor Hugo", "description": "data center", "name": "Cogent Nantes", "telecom": "data_center"}}, {"type": "node", "id": 6175333480, "lat": 48.907123, "lon": 2.2416311, "tags": {"addr:city": "La Garenne Colombes", "addr:housenumber": "77", "addr:postcode": "92250", "addr:street": "Boulevard de la R\u00e9publique", "description": "data center", "name": "Cogent Paris 1", "telecom": "data_center"}}, {"type": "node", "id": 6175354710, "lat": 46.5884206, "lon": 0.3400181, "tags": {"addr:city": "Poitiers", "addr:housenumber": "18", "addr:postcode": "86000", "addr:street": "Boulevard Jeanne d\u2019Arc", "name": "Cogent Poitiers", "telecom": "data_center"}}, {"type": "node", "id": 6205137527, "lat": 49.1359706, "lon": 2.2571554, "tags": {"description": "data center\nen construction (\u00e9t\u00e9 2019)", "telecom": "data_center"}}, {"type": "node", "id": 6212420800, "lat": 45.7574082, "lon": 4.8996581, "tags": {"description": "data center", "name": "LASOTEL PIXEL69", "telecom": "data_center"}}, {"type": "node", "id": 6212483563, "lat": 45.7719763, "lon": 4.8718044, "tags": {"description": "data center", "name": "ELB Group - DATACENTER LYON 3", "telecom": "data_center"}}, {"type": "node", "id": 6212512538, "lat": 45.7845355, "lon": 4.8882392, "tags": {"description": "data center", "name": "SynAApS - SaaS, PaaS, Housing", "telecom": "data_center"}}, {"type": "node", "id": 6212785490, "lat": 45.4586878, "lon": 4.396381, "tags": {"addr:city": "Saint-\u00c9tienne", "addr:housenumber": "1", "addr:postcode": "42000", "addr:street": "Rue de la Presse", "name": "Adista Saint-\u00c9tienne", "telecom": "data_center"}}, {"type": "node", "id": 6213121089, "lat": 46.5154971, "lon": -1.7479133, "tags": {"addr:city": "Olonne-sur-Mer", "addr:postcode": "85340", "addr:street": "Rue Albert Einstein", "description": "data center", "name": "Etix Vend\u00e9e #2", "telecom": "data_center", "website": "https://www.etixeverywhere.com/fr/"}}, {"type": "node", "id": 6222911368, "lat": 48.8883144, "lon": 2.376468, "tags": {"addr:city": "Paris", "addr:housenumber": "6bis", "addr:postcode": "75019", "addr:street": "Rue Riquet", "description": "data center", "name": "OVHcloud Paris", "telecom": "data_center"}}, {"type": "node", "id": 6229455977, "lat": 48.829557, "lon": 2.2959949, "tags": {"alt_name": "Iliad Datacenter DC4", "contact:city": "Paris", "contact:housenumber": "58", "contact:postcode": "75015", "contact:street": "Boulevard Lefebvre", "description": "data center", "name": "Scaleway Datacenter DC4", "old_name": "Online.net DC4", "operator": "Scaleway", "operator:wikidata": "Q3352745", "operator:wikipedia": "fr:Scaleway", "telecom": "data_center", "wikidata": "Q110914878"}}, {"type": "node", "id": 6289312996, "lat": 48.9729024, "lon": 2.5100716, "tags": {"addr:city": "Villepinte", "addr:housenumber": "22", "addr:postcode": "93420", "addr:street": "Avenue des Nations", "description": "data center", "name": "Telia ROSY Villepinte", "telecom": "data_center"}}, {"type": "node", "id": 6289367991, "lat": 48.9280589, "lon": 2.3410779, "tags": {"addr:city": "Saint-Denis", "addr:housenumber": "6", "addr:postcode": "93200", "addr:street": "Boulevard de la Lib\u00e9ration", "description": "data center", "name": "Ad Valem technologies TDF", "telecom": "data_center"}}, {"type": "node", "id": 6289527565, "lat": 48.9056227, "lon": 2.2594863, "tags": {"addr:city": "Courbevoie", "addr:housenumber": "37", "addr:postcode": "92400", "addr:street": "Rue du Moulin des Bruy\u00e8res", "description": "data center", "name": "Alphalink Telco Center", "telecom": "data_center"}}, {"type": "node", "id": 6289564874, "lat": 48.8878271, "lon": 2.2142352, "tags": {"addr:city": "Nanterre", "addr:housenumber": "55", "addr:postcode": "92000", "addr:street": "Avenue des Champs Pierreux", "building": "yes", "description": "data center", "name": "Level (3) Le Capitole Nanterre", "operator": "Lumen Technologies", "operator:wikidata": "Q5063092", "telecom": "data_center"}}, {"type": "node", "id": 6289587203, "lat": 48.8361144, "lon": 2.2351265, "tags": {"addr:city": "Boulogne-Billancourt", "addr:housenumber": "150", "addr:postcode": "92100", "addr:street": "Rue Gallieni", "description": "data center", "name": "Prosodie Boulogne", "telecom": "data_center"}}, {"type": "node", "id": 6289605233, "lat": 48.7785399, "lon": 2.2148032, "tags": {"addr:city": "V\u00e9lizy-Villacoublay", "addr:housenumber": "45", "addr:postcode": "78140", "addr:street": "Avenue de l'Europe", "description": "data center", "name": "KHEOPS Organisation V\u00e9lizy-Villacoublay", "telecom": "data_center"}}, {"type": "node", "id": 6289632564, "lat": 48.7842025, "lon": 2.2069451, "tags": {"addr:city": "V\u00e9lizy-Villacoublay", "addr:housenumber": "16", "addr:postcode": "78140", "addr:street": "Rue Grange Dame Rose", "description": "data center", "name": "Cogent Paris 2", "operator": "Cogentco", "telecom": "data_center", "website": "https://www.cogentco.com/cogent-france"}}, {"type": "node", "id": 6289682223, "lat": 48.7742033, "lon": 2.2379816, "tags": {"addr:city": "Le Plessis-Robinson", "addr:postcode": "92350", "addr:street": "Rue de la Boursidi\u00e8re", "description": "data center", "name": "KHEOPS Organisation Plessis-Robinson", "office": "company", "telecom": "data_center"}}, {"type": "node", "id": 6289753941, "lat": 48.8428819, "lon": 2.4040974, "tags": {"addr:city": "Paris", "addr:housenumber": "5-9", "addr:postcode": "75012", "addr:street": "Rue Mousset-Robert", "description": "data center", "name": "Acropolis Telecom Paris-Nation", "telecom": "data_center"}}, {"type": "node", "id": 6289858502, "lat": 48.8369186, "lon": 2.6411727, "tags": {"addr:city": "Lognes", "addr:housenumber": "93", "addr:postcode": "77185", "addr:street": "Cours des Petites \u00c9curies", "name": "Sungard AS IT", "telecom": "data_center"}}, {"type": "node", "id": 6289873866, "lat": 48.6887201, "lon": 2.2137794, "tags": {"addr:city": "Villebon Sur Yvette", "addr:housenumber": "14", "addr:postcode": "91140", "addr:street": "Avenue du Quebec", "description": "data center", "name": "Alionis DC1", "telecom": "data_center"}}, {"type": "node", "id": 6898386156, "lat": 44.8629919, "lon": -0.5554506, "tags": {"name": "Cogent", "operator": "Cogent Communications", "telecom": "data_center"}}, {"type": "node", "id": 7522025783, "lat": 45.189635, "lon": 5.7369136, "tags": {"name": "Cogent", "operator": "Cogent Communications, Inc.", "telecom": "data_center"}}, {"type": "node", "id": 7900883632, "lat": 48.819937, "lon": 2.393401, "tags": {"addr:city": "Ivry-sur-Seine", "addr:housenumber": "14", "addr:postcode": "94800", "addr:street": "Rue Jules Vanzuppe", "name": "Datacenter Aqua Ray", "operator": "Aqua Ray", "telecom": "data_center", "website": "https://aquaray.com"}}, {"type": "node", "id": 7902341447, "lat": 48.8836266, "lon": 2.3018423, "tags": {"name": "Salle Technique TV5MONDE", "operator": "TV5MONDE", "telecom": "data_center"}}, {"type": "node", "id": 7902351616, "lat": 48.8628101, "lon": 2.3583926, "tags": {"name": "Datacenter Orange Archives", "operator": "Orange", "telecom": "data_center"}}, {"type": "node", "id": 7902360503, "lat": 48.8852886, "lon": 2.4225686, "tags": {"name": "Salle technique TDF", "operator": "TDF", "telecom": "data_center"}}, {"type": "node", "id": 7902383102, "lat": 48.8338186, "lon": 2.2597533, "tags": {"name": "Salle technique TF1", "operator": "TF1", "telecom": "data_center"}}, {"type": "node", "id": 7902383458, "lat": 48.8574197, "lon": 2.2942124, "tags": {"name": "Salle technique TDF", "operator": "TDF", "telecom": "data_center"}}, {"type": "node", "id": 7902392228, "lat": 48.8383154, "lon": 2.2724395, "tags": {"name": "Salle Technique France T\u00e9l\u00e9visions", "operator": "France T\u00e9l\u00e9visions", "telecom": "data_center"}}, {"type": "node", "id": 7902398865, "lat": 48.8290685, "lon": 2.2646559, "tags": {"name": "Salle technique Eurosport", "operator": "Eurosport", "telecom": "data_center"}}, {"type": "node", "id": 7902413338, "lat": 48.8811889, "lon": 2.2731747, "tags": {"name": "Salle technique Groupe M6", "operator": "Groupe M6", "telecom": "data_center"}}, {"type": "node", "id": 7902421304, "lat": 48.8805935, "lon": 2.2722108, "tags": {"name": "Salle technique Groupe M6", "operator": "Groupe M6", "telecom": "data_center"}}, {"type": "node", "id": 7902526435, "lat": 48.4413007, "lon": -4.4154696, "tags": {"addr:housenumber": "105", "addr:street": "Rue Charles Nungesser", "name": "Data Center Bluecom", "operator": "Bluecom", "telecom": "data_center"}}, {"type": "node", "id": 7902527604, "lat": 48.7909399, "lon": 1.9752915, "tags": {"addr:housenumber": "2", "addr:street": "Avenue Gay-Lussac", "name": "Datacenter Thales Nungesser", "operator": "THALES", "telecom": "data_center"}}, {"type": "node", "id": 7902546622, "lat": 48.8275703, "lon": 2.2634734, "tags": {"name": "Salle technique Groupe CANAL", "operator": "Groupe CANAL", "telecom": "data_center"}}, {"type": "node", "id": 7902551102, "lat": 45.7343987, "lon": 4.8156496, "tags": {"name": "Salle technique Euronews", "operator": "Euronews", "telecom": "data_center"}}, {"type": "node", "id": 8048285522, "lat": 50.3454868, "lon": 3.5431852, "tags": {"name": "Techcr\u00e9a Solutions", "operator": "Techcr\u00e9a Solutions - First Heberg", "telecom": "data_center"}}, {"type": "node", "id": 8074063731, "lat": 48.7837888, "lon": 2.2080871, "tags": {"addr:city": "V\u00e9lizy-Villacoublay", "addr:housenumber": "16", "addr:postcode": "78140", "addr:street": "Rue Grange Dame Rose", "description": "250 m\u00b2 de salle informatique d\u2019une capacit\u00e9 de 60 racks", "description:en": "1 floor with a capacity of 250 m\u00b2, available for individual cages, racks and even individual servers", "name": "dc2scale V\u00e9lizy", "opening_hours": "24/7", "operator": "dc2scale", "phone": "+33184207217", "telecom": "data_center", "website": "https://dc2scale.fr/en/datacenters/velizy/"}}, {"type": "node", "id": 8297362166, "lat": 48.9196226, "lon": 2.3399387, "tags": {"building": "data_center", "name": "Datacenter RTE", "operator": "RTE", "telecom": "data_center"}}, {"type": "node", "id": 8297551605, "lat": 48.9203538, "lon": 2.34085, "tags": {"building": "data_center", "name": "Datacenter EDF", "operator": "EDF", "telecom": "data_center"}}, {"type": "node", "id": 8670043375, "lat": 48.7919993, "lon": 2.0500164, "tags": {"building": "data_center", "name": "Datacenter RTE", "operator": "RTE", "telecom": "data_center"}}, {"type": "node", "id": 8670065237, "lat": 45.7404807, "lon": 4.832222, "tags": {"name": "Datacenter RTE", "operator": "RTE", "telecom": "data_center"}}, {"type": "node", "id": 8744063082, "lat": 47.8930435, "lon": 1.852149, "tags": {"name": "France Travail datacenter Orl\u00e9ans", "operator": "France Travail DSI", "telecom": "data_center"}}, {"type": "node", "id": 8904810128, "lat": 48.5803658, "lon": 7.7633567, "tags": {"name": "Datacenter de l'Universit\u00e9 de Strasbourg", "telecom": "data_center"}}, {"type": "node", "id": 8930909347, "lat": 45.7584484, "lon": 4.8438905, "tags": {"name": "Lyon S\u00e9vign\u00e9", "operator": "Orange", "telecom": "data_center"}}, {"type": "node", "id": 8930909348, "lat": 50.6273024, "lon": 3.0778549, "tags": {"name": "Lille Boitelle", "operator": "Orange", "telecom": "data_center"}}, {"type": "node", "id": 9002117313, "lat": 48.8378088, "lon": 2.2726816, "tags": {"name": "Salle Technique France T\u00e9l\u00e9visions", "operator": "France T\u00e9l\u00e9visions", "telecom": "data_center"}}, {"type": "node", "id": 9002195217, "lat": 48.8401338, "lon": 2.2816846, "tags": {"name": "Salle Technique France T\u00e9l\u00e9visions", "operator": "France T\u00e9l\u00e9visions", "telecom": "data_center"}}, {"type": "node", "id": 9002203858, "lat": 48.8331955, "lon": 2.2373711, "tags": {"name": "Salle Technique Groupe Canal", "operator": "Groupe Canal", "telecom": "data_center"}}, {"type": "node", "id": 9002215626, "lat": 48.7256141, "lon": 2.4709503, "tags": {"name": "Datacenter Bouygues T\u00e9l\u00e9com", "operator": "Bouygues T\u00e9l\u00e9com", "operator:wikidata": "Q581438", "telecom": "data_center"}}, {"type": "node", "id": 9045173270, "lat": 48.6532272, "lon": 6.1302895, "tags": {"name": "Datacenter MGEN", "operator": "MGEN", "telecom": "data_center"}}, {"type": "node", "id": 9045239635, "lat": 43.4311399, "lon": 5.2712857, "tags": {"operator": "FDJ", "telecom": "data_center"}}, {"type": "node", "id": 9068699148, "lat": 48.8773644, "lon": 2.1749862, "tags": {"operator": "IFP", "telecom": "data_center"}}, {"type": "node", "id": 9068704649, "lat": 48.8787916, "lon": 2.1663589, "tags": {"telecom": "data_center"}}, {"type": "node", "id": 9068705141, "lat": 48.8830181, "lon": 2.1875495, "tags": {"operator": "Orange", "telecom": "data_center"}}, {"type": "node", "id": 9373660259, "lat": 48.8695816, "lon": 2.3476887, "tags": {"addr:city": "Paris", "addr:housenumber": "19,21", "addr:postcode": "75002", "addr:street": "Rue Poissonni\u00e8re", "name": "zColo Poissonni\u00e8re", "operator": "zColo France", "telecom": "data_center"}}, {"type": "node", "id": 9403059298, "lat": 48.7258632, "lon": 2.0777812, "tags": {"level": "1", "operator": "OpenStreetMap France", "operator:wikidata": "Q26996641", "ref": "osm32;osm33;osm34;osm35;osm36;osm37", "telecom": "data_center"}}, {"type": "node", "id": 9969529152, "lat": 44.1990193, "lon": 0.8376222, "tags": {"name": "DTC", "telecom": "data_center"}}, {"type": "node", "id": 10089225111, "lat": 48.0538551, "lon": 0.1871336, "tags": {"addr:city": "Saint-Saturnin", "addr:housenumber": "28", "addr:postcode": "72650", "addr:street": "Rue de Villeneuve", "name": "Datagrex", "office": "it", "ref:FR:SIRET": "52762712900010", "telecom": "data_center", "website": "https://www.datagrex.com/"}}, {"type": "node", "id": 10241762412, "lat": 47.3400512, "lon": 5.0776704, "tags": {"addr:city": "Saint-Apollinaire", "addr:housenumber": "24", "addr:postcode": "21850", "addr:street": "Rue de la Redoute", "name": "DTiX", "telecom": "data_center", "website": "https://www.dtix.fr/"}}, {"type": "node", "id": 11209760563, "lat": 50.6399277, "lon": 3.1456348, "tags": {"operator": "Ate", "telecom": "data_center"}}, {"type": "node", "id": 11691867437, "lat": 43.9119115, "lon": 2.0557948, "tags": {"name": "Crypteo", "operator": "Crypteo", "telecom": "data_center", "website": "https://www.crypteo.com/"}}, {"type": "node", "id": 11942572541, "lat": 47.7523015, "lon": 7.5248643, "tags": {"name": "Microsoft", "operator": "Microsoft", "operator:wikidata": "Q2283", "telecom": "data_center"}}, {"type": "node", "id": 12097993555, "lat": 43.3384856, "lon": 5.3465722, "tags": {"building": "data_center", "historic": "bunker", "name": "Datacenter Martha", "name:oc": "Basa U-Boot Marta", "owner": "digitalrealty", "source": "cadastre-dgi-fr source : Direction G\u00e9n\u00e9rale des Imp\u00f4ts - Cadastre. Mise \u00e0 jour : 2012;survey", "source:name:oc": "ieo-bdtopoc", "start_date": "1944"}}, {"type": "node", "id": 12150464472, "lat": 43.3610728, "lon": 5.3380356, "tags": {"name": "Telehouse THM1", "operator": "Telehouse", "ref": "THM1", "telecom": "data_center"}}, {"type": "node", "id": 12154384214, "lat": 43.3359205, "lon": 5.4119359, "tags": {"name": "Datacenter Sud", "operator": "Aix-Marseille Universit\u00e9", "ref": "DC SUD", "source": "https://datacentersud.univ-amu.fr/", "telecom": "data_center"}}, {"type": "node", "id": 12546664021, "lat": 43.3124463, "lon": 5.3747661, "tags": {"data_center:power": "1.2 MW", "name": "Phocea DC", "operator": "Phocea DC", "telecom": "data_center"}}, {"type": "node", "id": 12578588217, "lat": 48.5976468, "lon": 2.1976171, "tags": {"name": "Eclairion", "telecom": "data_center", "website": "https://eclairion.com/"}}, {"type": "node", "id": 13006633477, "lat": 47.3329339, "lon": 5.105566, "tags": {"name": "Euro-Information EIP (Data Center)", "operator": "Euro Information", "telecom": "data_center"}}, {"type": "node", "id": 13357674614, "lat": 46.6071036, "lon": 0.3254948, "tags": {"name": "Okantis", "telecom": "data_center"}}, {"type": "node", "id": 13743687202, "lat": 47.8455144, "lon": 1.9396564, "tags": {"name": "LIFO", "operator": "LIFO", "telecom": "data_center"}}, {"type": "way", "id": 37697561, "bounds": {"minlat": 50.6224255, "minlon": 3.0877608, "maxlat": 50.6232967, "maxlon": 3.0890037}, "geometry": [{"lat": 50.6232967, "lon": 3.0885226}, {"lat": 50.6231741, "lon": 3.0881812}, {"lat": 50.6231624, "lon": 3.0881486}, {"lat": 50.6230675, "lon": 3.0878843}, {"lat": 50.6230647, "lon": 3.0878765}, {"lat": 50.6230574, "lon": 3.0878831}, {"lat": 50.6230135, "lon": 3.0877608}, {"lat": 50.6229485, "lon": 3.087818}, {"lat": 50.6229394, "lon": 3.0878256}, {"lat": 50.6229354, "lon": 3.0878145}, {"lat": 50.6228964, "lon": 3.0878486}, {"lat": 50.6229103, "lon": 3.0878878}, {"lat": 50.6229144, "lon": 3.0878993}, {"lat": 50.6229296, "lon": 3.0879419}, {"lat": 50.622944, "lon": 3.0879824}, {"lat": 50.6226161, "lon": 3.0882733}, {"lat": 50.622628, "lon": 3.0883074}, {"lat": 50.622596, "lon": 3.0883353}, {"lat": 50.6225488, "lon": 3.0882026}, {"lat": 50.6227287, "lon": 3.0880436}, {"lat": 50.6227988, "lon": 3.0879816}, {"lat": 50.6227861, "lon": 3.087946}, {"lat": 50.622822, "lon": 3.0879142}, {"lat": 50.6228474, "lon": 3.0879845}, {"lat": 50.6229081, "lon": 3.0879307}, {"lat": 50.6229008, "lon": 3.0879108}, {"lat": 50.6228968, "lon": 3.0878999}, {"lat": 50.6228564, "lon": 3.0877892}, {"lat": 50.6228496, "lon": 3.0877953}, {"lat": 50.6228308, "lon": 3.0878119}, {"lat": 50.622796, "lon": 3.0878428}, {"lat": 50.6228072, "lon": 3.0878737}, {"lat": 50.6227871, "lon": 3.0878915}, {"lat": 50.6227788, "lon": 3.0878696}, {"lat": 50.6227634, "lon": 3.0878834}, {"lat": 50.6227383, "lon": 3.0878118}, {"lat": 50.6224255, "lon": 3.0880887}, {"lat": 50.6225057, "lon": 3.0883098}, {"lat": 50.6225183, "lon": 3.0882984}, {"lat": 50.6225354, "lon": 3.0883444}, {"lat": 50.6225218, "lon": 3.0883561}, {"lat": 50.6227538, "lon": 3.0890037}, {"lat": 50.622815, "lon": 3.0889481}, {"lat": 50.6226341, "lon": 3.0884433}, {"lat": 50.6226208, "lon": 3.0884061}, {"lat": 50.6226533, "lon": 3.0883781}, {"lat": 50.6226672, "lon": 3.0884169}, {"lat": 50.622847, "lon": 3.0889191}, {"lat": 50.6232967, "lon": 3.0885226}], "tags": {"building": "data_center", "name": "Datacenter SNCF RESARAIL", "operator": "SNCF", "source": "cadastre-dgi-fr source : Direction G\u00e9n\u00e9rale des Imp\u00f4ts - Cadastre. Mise \u00e0 jour : 2009", "telecom": "data_center"}}, {"type": "way", "id": 38354559, "bounds": {"minlat": 50.6923484, "minlon": 3.1997312, "maxlat": 50.6930448, "maxlon": 3.2005102}, "geometry": [{"lat": 50.6929696, "lon": 3.1997312}, {"lat": 50.6929923, "lon": 3.1998717}, {"lat": 50.6930125, "lon": 3.1998632}, {"lat": 50.6930448, "lon": 3.2000707}, {"lat": 50.6929029, "lon": 3.2001236}, {"lat": 50.6929332, "lon": 3.2003137}, {"lat": 50.6924456, "lon": 3.2005102}, {"lat": 50.6923484, "lon": 3.1999868}, {"lat": 50.6929696, "lon": 3.1997312}], "tags": {"addr:street": "Rue Kellermann", "building": "industrial", "name": "OVHcloud Roubaix - RBX1", "source": "cadastre-dgi-fr source : Direction G\u00e9n\u00e9rale des Imp\u00f4ts - Cadastre;mise \u00e0 jour : 2009", "telecom": "data_center"}}, {"type": "way", "id": 42016630, "bounds": {"minlat": 48.6461244, "minlon": 2.2212605, "maxlat": 48.6533727, "maxlon": 2.2369274}, "geometry": [{"lat": 48.6474066, "lon": 2.236455}, {"lat": 48.6469639, "lon": 2.2361834}, {"lat": 48.6461244, "lon": 2.2357259}, {"lat": 48.6464218, "lon": 2.2335665}, {"lat": 48.6471513, "lon": 2.233779}, {"lat": 48.6475235, "lon": 2.2328635}, {"lat": 48.6477609, "lon": 2.2330767}, {"lat": 48.6481331, "lon": 2.2323485}, {"lat": 48.6480987, "lon": 2.2310236}, {"lat": 48.6479602, "lon": 2.2290733}, {"lat": 48.6480169, "lon": 2.2267899}, {"lat": 48.6484831, "lon": 2.2254517}, {"lat": 48.6485598, "lon": 2.2247229}, {"lat": 48.6482218, "lon": 2.2246116}, {"lat": 48.6482557, "lon": 2.2243975}, {"lat": 48.6487094, "lon": 2.2226091}, {"lat": 48.649153, "lon": 2.2214404}, {"lat": 48.6492299, "lon": 2.2212605}, {"lat": 48.6495082, "lon": 2.2215141}, {"lat": 48.6502738, "lon": 2.2216182}, {"lat": 48.6507627, "lon": 2.2217024}, {"lat": 48.6513121, "lon": 2.2217971}, {"lat": 48.6521662, "lon": 2.2218454}, {"lat": 48.6521296, "lon": 2.223444}, {"lat": 48.6525695, "lon": 2.2243771}, {"lat": 48.6528516, "lon": 2.2249753}, {"lat": 48.653032, "lon": 2.2251023}, {"lat": 48.6533727, "lon": 2.2257582}, {"lat": 48.6532176, "lon": 2.2259363}, {"lat": 48.6526923, "lon": 2.2260474}, {"lat": 48.6523842, "lon": 2.2266304}, {"lat": 48.6517214, "lon": 2.2265607}, {"lat": 48.6515637, "lon": 2.2266278}, {"lat": 48.6512848, "lon": 2.2267314}, {"lat": 48.651224, "lon": 2.2267713}, {"lat": 48.6512031, "lon": 2.2268035}, {"lat": 48.6510555, "lon": 2.2271272}, {"lat": 48.6508427, "lon": 2.2275989}, {"lat": 48.6510702, "lon": 2.2277597}, {"lat": 48.6510056, "lon": 2.228099}, {"lat": 48.650738, "lon": 2.2280279}, {"lat": 48.6506583, "lon": 2.2280306}, {"lat": 48.650656, "lon": 2.228265}, {"lat": 48.6502731, "lon": 2.2300823}, {"lat": 48.6502802, "lon": 2.2302253}, {"lat": 48.6503474, "lon": 2.2303348}, {"lat": 48.6504366, "lon": 2.2304118}, {"lat": 48.6504891, "lon": 2.2304792}, {"lat": 48.650492, "lon": 2.230633}, {"lat": 48.6503499, "lon": 2.2313043}, {"lat": 48.6503197, "lon": 2.2314604}, {"lat": 48.6496116, "lon": 2.2311435}, {"lat": 48.6495153, "lon": 2.2312693}, {"lat": 48.6489426, "lon": 2.2341389}, {"lat": 48.6487383, "lon": 2.2351545}, {"lat": 48.6485828, "lon": 2.2358458}, {"lat": 48.6485513, "lon": 2.2361257}, {"lat": 48.6484875, "lon": 2.2361067}, {"lat": 48.6483759, "lon": 2.2369274}, {"lat": 48.6480117, "lon": 2.2366828}, {"lat": 48.6480205, "lon": 2.2366088}, {"lat": 48.6480525, "lon": 2.236326}, {"lat": 48.6478813, "lon": 2.2362833}, {"lat": 48.6477236, "lon": 2.236244}, {"lat": 48.6474433, "lon": 2.2361741}, {"lat": 48.6474139, "lon": 2.2363962}, {"lat": 48.6474066, "lon": 2.236455}], "tags": {"CLC:code": "121", "CLC:id": "FR-39694", "CLC:year": "2006", "industrial": "telecom", "landuse": "industrial", "name": "Data4 Campus Paris Saclay", "operator": "Data4", "ref": "Paris Marcoussis PAR1", "source": "Union europ\u00e9enne - SOeS, CORINE Land Cover, 2006.;Bing;cadastre-dgi-fr source : Direction G\u00e9n\u00e9rale des Imp\u00f4ts - Cadastre. Mise \u00e0 jour : 2021", "telecom": "data_center", "website": "https://www.data4group.com/"}}, {"type": "way", "id": 42742505, "bounds": {"minlat": 48.9262758, "minlon": 2.3489766, "maxlat": 48.9280021, "maxlon": 2.351715}, "geometry": [{"lat": 48.9272097, "lon": 2.351715}, {"lat": 48.9274651, "lon": 2.3510845}, {"lat": 48.9275975, "lon": 2.3512087}, {"lat": 48.927619, "lon": 2.3511967}, {"lat": 48.9276135, "lon": 2.3511738}, {"lat": 48.9275981, "lon": 2.3511095}, {"lat": 48.9276079, "lon": 2.3511041}, {"lat": 48.9275963, "lon": 2.3510554}, {"lat": 48.9276369, "lon": 2.3510328}, {"lat": 48.927626, "lon": 2.3509871}, {"lat": 48.9276662, "lon": 2.3509648}, {"lat": 48.9276544, "lon": 2.3509154}, {"lat": 48.9276911, "lon": 2.350895}, {"lat": 48.9276797, "lon": 2.3508475}, {"lat": 48.9277138, "lon": 2.3508285}, {"lat": 48.9277004, "lon": 2.3507724}, {"lat": 48.9277439, "lon": 2.3507482}, {"lat": 48.9277331, "lon": 2.3507033}, {"lat": 48.9277727, "lon": 2.3506812}, {"lat": 48.927761, "lon": 2.3506324}, {"lat": 48.9278005, "lon": 2.3506104}, {"lat": 48.9277887, "lon": 2.3505615}, {"lat": 48.927833, "lon": 2.3505368}, {"lat": 48.9278242, "lon": 2.3505001}, {"lat": 48.9278848, "lon": 2.3503526}, {"lat": 48.9279378, "lon": 2.3502236}, {"lat": 48.927998, "lon": 2.3500771}, {"lat": 48.9279804, "lon": 2.3500603}, {"lat": 48.9280021, "lon": 2.3500075}, {"lat": 48.9279805, "lon": 2.3499869}, {"lat": 48.9279778, "lon": 2.3499935}, {"lat": 48.9279609, "lon": 2.3499775}, {"lat": 48.92797, "lon": 2.3499553}, {"lat": 48.9279344, "lon": 2.3499214}, {"lat": 48.9279929, "lon": 2.3497792}, {"lat": 48.9277155, "lon": 2.3495151}, {"lat": 48.9276872, "lon": 2.3495841}, {"lat": 48.9270494, "lon": 2.3489766}, {"lat": 48.926991, "lon": 2.3491187}, {"lat": 48.9269477, "lon": 2.3490775}, {"lat": 48.926925, "lon": 2.3491326}, {"lat": 48.9269658, "lon": 2.3491715}, {"lat": 48.9268899, "lon": 2.3493559}, {"lat": 48.9268794, "lon": 2.3493813}, {"lat": 48.9263191, "lon": 2.3507369}, {"lat": 48.9262758, "lon": 2.3508476}, {"lat": 48.9263059, "lon": 2.3509376}, {"lat": 48.92634, "lon": 2.3509112}, {"lat": 48.9263666, "lon": 2.3509908}, {"lat": 48.9264008, "lon": 2.3509643}, {"lat": 48.9264295, "lon": 2.3510501}, {"lat": 48.9264625, "lon": 2.3510246}, {"lat": 48.92649, "lon": 2.3511067}, {"lat": 48.9265291, "lon": 2.3510764}, {"lat": 48.9272097, "lon": 2.351715}], "tags": {"addr:city": "Saint-Denis", "addr:housenumber": "114", "addr:postcode": "93200", "addr:street": "Rue Ambroise Croizat", "building": "industrial", "building:levels": "2", "name": "Equinix PA3", "operator": "Equinix", "operator:wikidata": "Q851641", "ref": "PA3", "roof:levels": "1", "roof:shape": "flat", "source": "cadastre-dgi-fr source : Direction G\u00e9n\u00e9rale des Imp\u00f4ts - Cadastre;mise \u00e0 jour : 2009", "telecom": "data_center", "website": "https://www.equinix.com/data-centers/europe-colocation/france-colocation/paris-data-centers/pa3", "wikidata:operator": "Q851641"}}, {"type": "way", "id": 43013791, "bounds": {"minlat": 48.6003125, "minlon": 7.744083, "maxlat": 48.6006199, "maxlon": 7.744367}, "geometry": [{"lat": 48.6003427, "lon": 7.744083}, {"lat": 48.6004905, "lon": 7.7441405}, {"lat": 48.6005305, "lon": 7.7441561}, {"lat": 48.6006199, "lon": 7.7441909}, {"lat": 48.6005898, "lon": 7.744367}, {"lat": 48.6005653, "lon": 7.7443575}, {"lat": 48.6003125, "lon": 7.7442591}, {"lat": 48.6003427, "lon": 7.744083}], "tags": {"building": "industrial", "name": "Quiri", "operator": "Cogent Communications", "roof:colour": "red", "roof:shape": "flat", "source": "cadastre-dgi-fr source : Direction G\u00e9n\u00e9rale des Imp\u00f4ts - Cadastre;mise \u00e0 jour : 2009", "telecom": "data_center"}}, {"type": "way", "id": 45423103, "bounds": {"minlat": 48.5930324, "minlon": 7.7949211, "maxlat": 48.5935, "maxlon": 7.7953202}, "geometry": [{"lat": 48.5931819, "lon": 7.7949211}, {"lat": 48.593216, "lon": 7.7949749}, {"lat": 48.5932538, "lon": 7.7950006}, {"lat": 48.5932618, "lon": 7.7949753}, {"lat": 48.5933922, "lon": 7.7950634}, {"lat": 48.5935, "lon": 7.7951362}, {"lat": 48.593448, "lon": 7.7953202}, {"lat": 48.5930324, "lon": 7.7950416}, {"lat": 48.593058, "lon": 7.7949536}, {"lat": 48.5931135, "lon": 7.7949903}, {"lat": 48.5931819, "lon": 7.7949211}], "tags": {"building": "service", "name": "Interoute Strasbourg", "operator": "Interoute", "source": "v2;Direction G\u00e9n\u00e9rale des Finances Publiques - Cadastre;mise \u00e0 jour : 09-02-2009", "telecom": "data_center", "telecom:medium": "fibre"}}, {"type": "way", "id": 48199846, "bounds": {"minlat": 48.5677647, "minlon": 7.7817779, "maxlat": 48.5695515, "maxlon": 7.783183}, "geometry": [{"lat": 48.5691126, "lon": 7.7819574}, {"lat": 48.5689898, "lon": 7.7819976}, {"lat": 48.5689716, "lon": 7.7818707}, {"lat": 48.5692555, "lon": 7.7817779}, {"lat": 48.5692737, "lon": 7.7819048}, {"lat": 48.5691474, "lon": 7.7819461}, {"lat": 48.5691555, "lon": 7.7820981}, {"lat": 48.5694552, "lon": 7.7819505}, {"lat": 48.5695515, "lon": 7.782387}, {"lat": 48.569447, "lon": 7.7824384}, {"lat": 48.5694356, "lon": 7.7823886}, {"lat": 48.5691554, "lon": 7.7825294}, {"lat": 48.569165, "lon": 7.7825703}, {"lat": 48.5690918, "lon": 7.7826067}, {"lat": 48.569083, "lon": 7.7825668}, {"lat": 48.5686959, "lon": 7.7827594}, {"lat": 48.5687081, "lon": 7.7828116}, {"lat": 48.568657, "lon": 7.782836}, {"lat": 48.5686459, "lon": 7.782786}, {"lat": 48.5686011, "lon": 7.7828076}, {"lat": 48.5686128, "lon": 7.7828581}, {"lat": 48.568515, "lon": 7.7829076}, {"lat": 48.5685031, "lon": 7.7828578}, {"lat": 48.567853, "lon": 7.783183}, {"lat": 48.5677647, "lon": 7.7827933}, {"lat": 48.5678333, "lon": 7.782759}, {"lat": 48.5678162, "lon": 7.7826854}, {"lat": 48.5680648, "lon": 7.7825644}, {"lat": 48.568082, "lon": 7.7826346}, {"lat": 48.5681412, "lon": 7.7826052}, {"lat": 48.5681255, "lon": 7.7825351}, {"lat": 48.5682999, "lon": 7.78245}, {"lat": 48.5683088, "lon": 7.7824758}, {"lat": 48.5685825, "lon": 7.7823355}, {"lat": 48.56857, "lon": 7.7822767}, {"lat": 48.5684604, "lon": 7.7823294}, {"lat": 48.5684242, "lon": 7.7821636}, {"lat": 48.5685475, "lon": 7.7821028}, {"lat": 48.5686703, "lon": 7.7820422}, {"lat": 48.5687078, "lon": 7.7822078}, {"lat": 48.5685979, "lon": 7.7822621}, {"lat": 48.5686119, "lon": 7.7823225}, {"lat": 48.5690636, "lon": 7.7820947}, {"lat": 48.5690734, "lon": 7.7821385}, {"lat": 48.5691211, "lon": 7.782115}, {"lat": 48.5691126, "lon": 7.7819574}], "tags": {"building": "data_center", "contact:city": "Strasbourg", "contact:housenumber": "1", "contact:postcode": "67100", "contact:street": "Rue du Havre", "contact:website": "http://www.datadock.eu/", "name": "Datadock", "telecom": "data_center"}}, {"type": "way", "id": 49261097, "bounds": {"minlat": 43.626688, "minlon": 7.0321558, "maxlat": 43.6273114, "maxlon": 7.0329268}, "geometry": [{"lat": 43.6269758, "lon": 7.0321558}, {"lat": 43.6270967, "lon": 7.0323638}, {"lat": 43.6270374, "lon": 7.0324288}, {"lat": 43.627075, "lon": 7.0324897}, {"lat": 43.6271316, "lon": 7.0324283}, {"lat": 43.6271528, "lon": 7.0324151}, {"lat": 43.6271726, "lon": 7.0324095}, {"lat": 43.6271956, "lon": 7.0324134}, {"lat": 43.6272175, "lon": 7.0324326}, {"lat": 43.6273018, "lon": 7.0325736}, {"lat": 43.6273106, "lon": 7.0326037}, {"lat": 43.6273114, "lon": 7.0326345}, {"lat": 43.6273051, "lon": 7.0326609}, {"lat": 43.6272937, "lon": 7.0326839}, {"lat": 43.6271895, "lon": 7.0327964}, {"lat": 43.627165, "lon": 7.0328052}, {"lat": 43.6271375, "lon": 7.0328018}, {"lat": 43.6271193, "lon": 7.0327865}, {"lat": 43.6270993, "lon": 7.0327581}, {"lat": 43.6269946, "lon": 7.0325763}, {"lat": 43.6268981, "lon": 7.0326854}, {"lat": 43.6269781, "lon": 7.0328266}, {"lat": 43.6269044, "lon": 7.0329108}, {"lat": 43.6268758, "lon": 7.032862}, {"lat": 43.6268176, "lon": 7.0329268}, {"lat": 43.6267181, "lon": 7.032746}, {"lat": 43.6267581, "lon": 7.0327013}, {"lat": 43.6267373, "lon": 7.0326673}, {"lat": 43.6267493, "lon": 7.032655}, {"lat": 43.626688, "lon": 7.0325462}, {"lat": 43.6267637, "lon": 7.0324649}, {"lat": 43.6267796, "lon": 7.0324939}, {"lat": 43.6268675, "lon": 7.0323991}, {"lat": 43.6268205, "lon": 7.0323189}, {"lat": 43.6269758, "lon": 7.0321558}], "tags": {"building": "office", "building:levels": "1", "name": "B4", "operator": "Air France", "roof:levels": "0", "telecom": "data_center"}}, {"type": "way", "id": 49292264, "bounds": {"minlat": 48.9020587, "minlon": 2.1929493, "maxlat": 48.9023715, "maxlon": 2.1933976}, "geometry": [{"lat": 48.9020587, "lon": 2.1932038}, {"lat": 48.9021287, "lon": 2.1933226}, {"lat": 48.9021298, "lon": 2.1933213}, {"lat": 48.9021423, "lon": 2.1933436}, {"lat": 48.9021415, "lon": 2.1933448}, {"lat": 48.9021726, "lon": 2.1933976}, {"lat": 48.9023222, "lon": 2.1931954}, {"lat": 48.9023329, "lon": 2.1932133}, {"lat": 48.9023715, "lon": 2.1931609}, {"lat": 48.9022473, "lon": 2.1929493}, {"lat": 48.9020587, "lon": 2.1932038}], "tags": {"building": "yes", "operator": "Bouygues T\u00e9l\u00e9com", "operator:wikidata": "Q581438", "roof:shape": "flat", "source": "cadastre-dgi-fr source : Direction G\u00e9n\u00e9rale des Imp\u00f4ts - Cadastre. Mise \u00e0 jour : 2010", "telecom": "data_center"}}, {"type": "way", "id": 49292266, "bounds": {"minlat": 48.9023398, "minlon": 2.1926257, "maxlat": 48.9027725, "maxlon": 2.1932012}, "geometry": [{"lat": 48.9027103, "lon": 2.1926648}, {"lat": 48.9027725, "lon": 2.1927805}, {"lat": 48.9027476, "lon": 2.1928112}, {"lat": 48.9027672, "lon": 2.1928477}, {"lat": 48.9025778, "lon": 2.1930825}, {"lat": 48.9025622, "lon": 2.1930539}, {"lat": 48.902443, "lon": 2.1932012}, {"lat": 48.9023398, "lon": 2.1930073}, {"lat": 48.9024554, "lon": 2.192864}, {"lat": 48.9025766, "lon": 2.1927134}, {"lat": 48.9026477, "lon": 2.1926257}, {"lat": 48.9026853, "lon": 2.1926956}, {"lat": 48.9027103, "lon": 2.1926648}], "tags": {"building": "yes", "operator": "Bouygues T\u00e9l\u00e9com", "operator:wikidata": "Q581438", "roof:shape": "flat", "source": "cadastre-dgi-fr source : Direction G\u00e9n\u00e9rale des Imp\u00f4ts - Cadastre. Mise \u00e0 jour : 2010", "telecom": "data_center"}}, {"type": "way", "id": 50210667, "bounds": {"minlat": 45.1683281, "minlon": 5.7149428, "maxlat": 45.1686697, "maxlon": 5.7153152}, "geometry": [{"lat": 45.1683281, "lon": 5.7151771}, {"lat": 45.1684002, "lon": 5.7152075}, {"lat": 45.1683936, "lon": 5.7152404}, {"lat": 45.1684586, "lon": 5.7152664}, {"lat": 45.1684518, "lon": 5.7152998}, {"lat": 45.1684907, "lon": 5.7153152}, {"lat": 45.1685097, "lon": 5.715224}, {"lat": 45.1686278, "lon": 5.7152714}, {"lat": 45.1686697, "lon": 5.7150627}, {"lat": 45.1683737, "lon": 5.7149428}, {"lat": 45.1683281, "lon": 5.7151771}], "tags": {"addr:city": "Grenoble", "addr:housenumber": "73", "addr:postcode": "38100", "addr:street": "Rue G\u00e9n\u00e9ral Mangin", "building": "industrial", "building:levels": "3", "mapillary": "1145745062564544", "name": "Green DataCenter Eolas", "operator": "Orange Business", "roof:levels": "1", "roof:shape": "flat", "source": "cadastre-dgi-fr source : Direction G\u00e9n\u00e9rale des Imp\u00f4ts - Cadastre. Mise \u00e0 jour : 2010", "start_date": "2013-01-21", "telecom": "data_center", "website": "https://lafabrique.orange-business.com/12-cloud-hebergement-web.htm"}}, {"type": "way", "id": 58495009, "bounds": {"minlat": 48.6334811, "minlon": 7.7690336, "maxlat": 48.6337268, "maxlon": 7.7694603}, "geometry": [{"lat": 48.6335441, "lon": 7.7694603}, {"lat": 48.6334811, "lon": 7.7691085}, {"lat": 48.6336638, "lon": 7.7690336}, {"lat": 48.6337268, "lon": 7.7693855}, {"lat": 48.6336954, "lon": 7.7693983}, {"lat": 48.6336586, "lon": 7.7694134}, {"lat": 48.6335441, "lon": 7.7694603}], "tags": {"building": "yes", "operator": "Bouygues T\u00e9l\u00e9com", "source": "Direction G\u00e9n\u00e9rale des Finances Publiques - Cadastre;mise \u00e0 jour : 2010", "telecom": "data_center"}}, {"type": "way", "id": 61091773, "bounds": {"minlat": 45.0485197, "minlon": 5.0861599, "maxlat": 45.0487173, "maxlon": 5.0865635}, "geometry": [{"lat": 45.0486017, "lon": 5.0863138}, {"lat": 45.0485197, "lon": 5.0863339}, {"lat": 45.0485284, "lon": 5.0864131}, {"lat": 45.0485548, "lon": 5.0864077}, {"lat": 45.0485592, "lon": 5.0864536}, {"lat": 45.0485513, "lon": 5.0864571}, {"lat": 45.048559, "lon": 5.0865371}, {"lat": 45.0486237, "lon": 5.0865228}, {"lat": 45.0486285, "lon": 5.0865635}, {"lat": 45.0487173, "lon": 5.0865446}, {"lat": 45.0486869, "lon": 5.0862602}, {"lat": 45.0486762, "lon": 5.0861599}, {"lat": 45.0485563, "lon": 5.0861863}, {"lat": 45.0485664, "lon": 5.086282}, {"lat": 45.0485976, "lon": 5.0862755}, {"lat": 45.0486017, "lon": 5.0863138}], "tags": {"building": "yes", "operator": "Fingerprint Technologies", "source": "cadastre-dgi-fr source : Direction G\u00e9n\u00e9rale des Finances Publiques - Cadastre. Mise \u00e0 jour : 2017", "telecom": "data_center"}}, {"type": "way", "id": 62340941, "bounds": {"minlat": 45.7547505, "minlon": 4.8629161, "maxlat": 45.7554508, "maxlon": 4.8645263}, "geometry": [{"lat": 45.7554321, "lon": 4.8630964}, {"lat": 45.7553946, "lon": 4.8630707}, {"lat": 45.7554142, "lon": 4.8630125}, {"lat": 45.7554261, "lon": 4.8630205}, {"lat": 45.7554508, "lon": 4.8629477}, {"lat": 45.7554054, "lon": 4.8629161}, {"lat": 45.7553829, "lon": 4.8629818}, {"lat": 45.7553667, "lon": 4.8629705}, {"lat": 45.7553575, "lon": 4.862997}, {"lat": 45.7553688, "lon": 4.863005}, {"lat": 45.7553557, "lon": 4.8630438}, {"lat": 45.7552317, "lon": 4.8629579}, {"lat": 45.7551482, "lon": 4.8632055}, {"lat": 45.7551364, "lon": 4.8632406}, {"lat": 45.7550621, "lon": 4.8634609}, {"lat": 45.7550265, "lon": 4.8634366}, {"lat": 45.7550222, "lon": 4.8634488}, {"lat": 45.7549667, "lon": 4.8634105}, {"lat": 45.7549447, "lon": 4.8634755}, {"lat": 45.754992, "lon": 4.8635083}, {"lat": 45.7549852, "lon": 4.8635285}, {"lat": 45.7550038, "lon": 4.8635412}, {"lat": 45.7550103, "lon": 4.8635225}, {"lat": 45.7550363, "lon": 4.8635402}, {"lat": 45.7550155, "lon": 4.863602}, {"lat": 45.7549712, "lon": 4.8637334}, {"lat": 45.7547505, "lon": 4.8643879}, {"lat": 45.7548038, "lon": 4.8644245}, {"lat": 45.7549518, "lon": 4.8645263}, {"lat": 45.7551023, "lon": 4.86408}, {"lat": 45.7551134, "lon": 4.8640471}, {"lat": 45.7551758, "lon": 4.8638622}, {"lat": 45.7552152, "lon": 4.8637414}, {"lat": 45.7554321, "lon": 4.8630964}], "tags": {"building": "office", "building:colour": "#915c4a", "building:levels": "6", "building:material": "brick", "check_date": "2024-06-28", "name": "Orange Lyon Lumi\u00e8re - Centrale", "office": "telecommunication", "opening_hours": "24/7", "roof:colour": "#cce8e5", "roof:material": "gravel", "roof:shape": "flat", "source": "cadastre-dgi-fr source : Direction G\u00e9n\u00e9rale des Imp\u00f4ts - Cadastre. Mise \u00e0 jour : 2010", "telecom": "data_center", "utility": "telecom"}}, {"type": "way", "id": 62777045, "bounds": {"minlat": 48.645917, "minlon": 2.498072, "maxlat": 48.6467554, "maxlon": 2.4994205}, "geometry": [{"lat": 48.6467554, "lon": 2.498706}, {"lat": 48.6467087, "lon": 2.4986961}, {"lat": 48.6465491, "lon": 2.4986627}, {"lat": 48.6464375, "lon": 2.4986392}, {"lat": 48.6464529, "lon": 2.4984721}, {"lat": 48.6464752, "lon": 2.4982304}, {"lat": 48.6464801, "lon": 2.4981762}, {"lat": 48.6459848, "lon": 2.498072}, {"lat": 48.645917, "lon": 2.4988085}, {"lat": 48.6459721, "lon": 2.4988202}, {"lat": 48.6461197, "lon": 2.498851}, {"lat": 48.6462416, "lon": 2.4988767}, {"lat": 48.6462261, "lon": 2.4990472}, {"lat": 48.646205, "lon": 2.499276}, {"lat": 48.6461982, "lon": 2.4993498}, {"lat": 48.6463393, "lon": 2.4993794}, {"lat": 48.6465349, "lon": 2.4994205}, {"lat": 48.6465564, "lon": 2.4991865}, {"lat": 48.6467162, "lon": 2.4992201}, {"lat": 48.6467399, "lon": 2.4989107}, {"lat": 48.6467554, "lon": 2.498706}], "tags": {"building": "yes", "name": "Datacenter Soci\u00e9t\u00e9 Generale", "operator": "Soci\u00e9t\u00e9 Generale", "source": "cadastre-dgi-fr source : Direction G\u00e9n\u00e9rale des Imp\u00f4ts - Cadastre. Mise \u00e0 jour : 2010", "telecom": "data_center"}}, {"type": "way", "id": 62840519, "bounds": {"minlat": 45.7563188, "minlon": 3.1344759, "maxlat": 45.7569539, "maxlon": 3.135002}, "geometry": [{"lat": 45.756376, "lon": 3.135002}, {"lat": 45.7569532, "lon": 3.1347842}, {"lat": 45.756932, "lon": 3.1346688}, {"lat": 45.7569539, "lon": 3.1346186}, {"lat": 45.7569168, "lon": 3.1345876}, {"lat": 45.7569018, "lon": 3.134506}, {"lat": 45.7568741, "lon": 3.1344829}, {"lat": 45.7568289, "lon": 3.1344997}, {"lat": 45.7568007, "lon": 3.1344759}, {"lat": 45.7567849, "lon": 3.1345165}, {"lat": 45.7567419, "lon": 3.1345329}, {"lat": 45.756714, "lon": 3.134508}, {"lat": 45.7565394, "lon": 3.1345744}, {"lat": 45.7565454, "lon": 3.1346068}, {"lat": 45.7563188, "lon": 3.1346921}, {"lat": 45.756376, "lon": 3.135002}], "tags": {"addr:housenumber": "44", "addr:street": "Rue des Sauzes", "building": "industrial", "name": "O2Switch DC2", "operator": "O2Switch", "source": "cadastre-dgi-fr source : Direction G\u00e9n\u00e9rale des Imp\u00f4ts - Cadastre. Mise \u00e0 jour : 2010", "telecom": "data_center"}}, {"type": "way", "id": 63259490, "bounds": {"minlat": 45.4403807, "minlon": 4.400006, "maxlat": 45.4408492, "maxlon": 4.400854}, "geometry": [{"lat": 45.4403981, "lon": 4.4002006}, {"lat": 45.44052, "lon": 4.4007402}, {"lat": 45.4405333, "lon": 4.4007947}, {"lat": 45.4405584, "lon": 4.4007822}, {"lat": 45.4405611, "lon": 4.4007954}, {"lat": 45.4405317, "lon": 4.4008094}, {"lat": 45.4405416, "lon": 4.400854}, {"lat": 45.4405856, "lon": 4.4008337}, {"lat": 45.4405804, "lon": 4.400809}, {"lat": 45.4405894, "lon": 4.4008043}, {"lat": 45.4405973, "lon": 4.4008406}, {"lat": 45.4407994, "lon": 4.4007488}, {"lat": 45.4407908, "lon": 4.4007109}, {"lat": 45.4407985, "lon": 4.4007078}, {"lat": 45.4408052, "lon": 4.4007326}, {"lat": 45.4408492, "lon": 4.4007123}, {"lat": 45.4408387, "lon": 4.4006678}, {"lat": 45.44081, "lon": 4.4006818}, {"lat": 45.4408067, "lon": 4.4006686}, {"lat": 45.4408325, "lon": 4.4006578}, {"lat": 45.4406966, "lon": 4.4000636}, {"lat": 45.4406715, "lon": 4.4000761}, {"lat": 45.4406688, "lon": 4.4000629}, {"lat": 45.4406982, "lon": 4.4000489}, {"lat": 45.4406883, "lon": 4.400006}, {"lat": 45.4406436, "lon": 4.4000262}, {"lat": 45.4406482, "lon": 4.4000477}, {"lat": 45.4406405, "lon": 4.4000524}, {"lat": 45.4406326, "lon": 4.4000177}, {"lat": 45.4404305, "lon": 4.4001095}, {"lat": 45.4404391, "lon": 4.4001442}, {"lat": 45.4404307, "lon": 4.4001489}, {"lat": 45.4404254, "lon": 4.4001258}, {"lat": 45.4403807, "lon": 4.400146}, {"lat": 45.4403912, "lon": 4.4001906}, {"lat": 45.4404206, "lon": 4.4001765}, {"lat": 45.4404225, "lon": 4.4001897}, {"lat": 45.4403981, "lon": 4.4002006}], "tags": {"building": "office", "name": "Datacenter Groupe Casino", "operator": "Groupe Casino", "source": "cadastre-dgi-fr source : Direction G\u00e9n\u00e9rale des Imp\u00f4ts - Cadastre. Mise \u00e0 jour : 2010", "telecom": "data_center"}}, {"type": "way", "id": 63868212, "bounds": {"minlat": 43.6549233, "minlon": 7.146999, "maxlat": 43.6552216, "maxlon": 7.1473423}, "geometry": [{"lat": 43.6552216, "lon": 7.1471151}, {"lat": 43.6549816, "lon": 7.146999}, {"lat": 43.6549233, "lon": 7.1472262}, {"lat": 43.655163, "lon": 7.1473423}, {"lat": 43.6552216, "lon": 7.1471151}], "tags": {"building": "yes", "operator": "Bouygues T\u00e9l\u00e9com", "source": "cadastre-dgi-fr source : Direction G\u00e9n\u00e9rale des Imp\u00f4ts - Cadastre. Mise \u00e0 jour : 2010", "telecom": "data_center"}}, {"type": "way", "id": 63979423, "bounds": {"minlat": 48.91454, "minlon": 2.3618424, "maxlat": 48.9149156, "maxlon": 2.3629385}, "geometry": [{"lat": 48.9149077, "lon": 2.3628879}, {"lat": 48.9149156, "lon": 2.3619359}, {"lat": 48.9147721, "lon": 2.3619347}, {"lat": 48.9147726, "lon": 2.3618434}, {"lat": 48.9145438, "lon": 2.3618424}, {"lat": 48.91454, "lon": 2.3629383}, {"lat": 48.9146936, "lon": 2.3629385}, {"lat": 48.9146947, "lon": 2.3628846}, {"lat": 48.9149077, "lon": 2.3628879}], "tags": {"addr:city": "Saint-Denis", "addr:housenumber": "7;9", "addr:postcode": "93200", "addr:street": "Avenue des Arts et M\u00e9tiers", "building": "data_center", "name": "Interxion PAR3", "operator": "Digital Realty", "operator:wikidata": "Q5275969", "source": "cadastre-dgi-fr source : Direction G\u00e9n\u00e9rale des Imp\u00f4ts - Cadastre. Mise \u00e0 jour : 2010", "telecom": "data_center"}}, {"type": "way", "id": 63983178, "bounds": {"minlat": 48.9138975, "minlon": 2.3619028, "maxlat": 48.9144712, "maxlon": 2.362848}, "geometry": [{"lat": 48.9144712, "lon": 2.3619086}, {"lat": 48.9139024, "lon": 2.3619028}, {"lat": 48.9138975, "lon": 2.3628426}, {"lat": 48.9143559, "lon": 2.362848}, {"lat": 48.9143562, "lon": 2.3627806}, {"lat": 48.9144659, "lon": 2.3627823}, {"lat": 48.9144712, "lon": 2.3619086}], "tags": {"addr:city": "Saint-Denis", "addr:housenumber": "11;13", "addr:postcode": "93200", "addr:street": "Avenue des Arts et M\u00e9tiers", "building": "data_center", "name": "Interxion PAR5", "operator": "Digital Realty", "operator:wikidata": "Q5275969", "source": "cadastre-dgi-fr source : Direction G\u00e9n\u00e9rale des Imp\u00f4ts - Cadastre. Mise \u00e0 jour : 2010", "telecom": "data_center"}}, {"type": "way", "id": 63996094, "bounds": {"minlat": 48.8440214, "minlon": 2.8030524, "maxlat": 48.8454309, "maxlon": 2.8050015}, "geometry": [{"lat": 48.8447393, "lon": 2.8030524}, {"lat": 48.8441879, "lon": 2.8035252}, {"lat": 48.8441703, "lon": 2.8035403}, {"lat": 48.8441115, "lon": 2.8035906}, {"lat": 48.8441837, "lon": 2.8037803}, {"lat": 48.8443679, "lon": 2.8036237}, {"lat": 48.8444462, "lon": 2.8038361}, {"lat": 48.8441458, "lon": 2.8040959}, {"lat": 48.8441473, "lon": 2.8041}, {"lat": 48.8440214, "lon": 2.8042019}, {"lat": 48.84432, "lon": 2.8050015}, {"lat": 48.8444417, "lon": 2.804895}, {"lat": 48.8444456, "lon": 2.8049063}, {"lat": 48.8447514, "lon": 2.8046513}, {"lat": 48.8448154, "lon": 2.8048249}, {"lat": 48.8448319, "lon": 2.8048698}, {"lat": 48.8449179, "lon": 2.8047966}, {"lat": 48.8451298, "lon": 2.8046162}, {"lat": 48.8450469, "lon": 2.8043982}, {"lat": 48.8453144, "lon": 2.8041705}, {"lat": 48.84531, "lon": 2.8041581}, {"lat": 48.8454309, "lon": 2.8040547}, {"lat": 48.8451337, "lon": 2.8032568}, {"lat": 48.8450137, "lon": 2.8033609}, {"lat": 48.8450105, "lon": 2.8033514}, {"lat": 48.8447923, "lon": 2.8035406}, {"lat": 48.8447409, "lon": 2.8035853}, {"lat": 48.8446626, "lon": 2.8033704}, {"lat": 48.8447663, "lon": 2.8032809}, {"lat": 48.8448115, "lon": 2.803242}, {"lat": 48.8447449, "lon": 2.8030671}, {"lat": 48.8447393, "lon": 2.8030524}], "tags": {"building": "data_center", "name": "Datacenter Vega", "operator": "Natixis", "ref": "VEGA", "source": "cadastre-dgi-fr source : Direction G\u00e9n\u00e9rale des Imp\u00f4ts - Cadastre. Mise \u00e0 jour : 2010", "telecom": "data_center", "wikidata": "Q571156", "wikipedia": "fr:Natixis"}}, {"type": "way", "id": 64108260, "bounds": {"minlat": 43.625198, "minlon": 1.4869817, "maxlat": 43.6254819, "maxlon": 1.4873496}, "geometry": [{"lat": 43.625479, "lon": 1.4872981}, {"lat": 43.6254661, "lon": 1.4871358}, {"lat": 43.6254508, "lon": 1.4871379}, {"lat": 43.625438, "lon": 1.4869817}, {"lat": 43.625198, "lon": 1.4870187}, {"lat": 43.6252213, "lon": 1.4873467}, {"lat": 43.6253428, "lon": 1.4873285}, {"lat": 43.6253443, "lon": 1.4873496}, {"lat": 43.6254554, "lon": 1.4873332}, {"lat": 43.6254819, "lon": 1.4873302}, {"lat": 43.625479, "lon": 1.4872981}], "tags": {"building": "yes", "name": "Zayo Toulouse", "operator": "Zayo", "source": "cadastre-dgi-fr source : Direction G\u00e9n\u00e9rale des Imp\u00f4ts - Cadastre. Mise \u00e0 jour : 2010", "telecom": "data_center", "wall": "no"}}, {"type": "way", "id": 64201452, "bounds": {"minlat": 49.4379258, "minlon": 1.0970331, "maxlat": 49.438378, "maxlon": 1.0975665}, "geometry": [{"lat": 49.438378, "lon": 1.0971708}, {"lat": 49.4380821, "lon": 1.0970331}, {"lat": 49.4380528, "lon": 1.0971909}, {"lat": 49.4380219, "lon": 1.0973519}, {"lat": 49.4379387, "lon": 1.0973142}, {"lat": 49.4379355, "lon": 1.0973127}, {"lat": 49.4379309, "lon": 1.0973382}, {"lat": 49.4379258, "lon": 1.0973663}, {"lat": 49.4380122, "lon": 1.0974056}, {"lat": 49.4380073, "lon": 1.0974304}, {"lat": 49.4381114, "lon": 1.0974788}, {"lat": 49.4383019, "lon": 1.0975665}, {"lat": 49.438378, "lon": 1.0971708}], "tags": {"building": "yes", "source": "cadastre-dgi-fr source : Direction G\u00e9n\u00e9rale des Imp\u00f4ts - Cadastre. Mise \u00e0 jour : 2010", "telecom": "data_center"}}, {"type": "way", "id": 65043676, "bounds": {"minlat": 49.4289513, "minlon": 1.0757687, "maxlat": 49.4291937, "maxlon": 1.0761664}, "geometry": [{"lat": 49.4291937, "lon": 1.07606}, {"lat": 49.4291686, "lon": 1.0760397}, {"lat": 49.4291774, "lon": 1.0760213}, {"lat": 49.4291694, "lon": 1.0760142}, {"lat": 49.4291901, "lon": 1.0759585}, {"lat": 49.4291536, "lon": 1.0759272}, {"lat": 49.4291482, "lon": 1.0759421}, {"lat": 49.4291253, "lon": 1.0759225}, {"lat": 49.4291304, "lon": 1.0759076}, {"lat": 49.4291225, "lon": 1.0758997}, {"lat": 49.4291371, "lon": 1.0758573}, {"lat": 49.4290351, "lon": 1.0757687}, {"lat": 49.4289513, "lon": 1.0759974}, {"lat": 49.4289576, "lon": 1.0760193}, {"lat": 49.429156, "lon": 1.0761664}, {"lat": 49.4291937, "lon": 1.07606}], "tags": {"building": "service", "name": "Cogent Rouen", "operator": "Cogent", "source": "cadastre-dgi-fr source : Direction G\u00e9n\u00e9rale des Imp\u00f4ts - Cadastre. Mise \u00e0 jour : 2010", "telecom": "data_center"}}, {"type": "way", "id": 65551099, "bounds": {"minlat": 47.9965549, "minlon": 0.2282178, "maxlat": 47.9969967, "maxlon": 0.2287264}, "geometry": [{"lat": 47.9966626, "lon": 0.2287264}, {"lat": 47.9969599, "lon": 0.2285477}, {"lat": 47.9969963, "lon": 0.2285231}, {"lat": 47.9969967, "lon": 0.2284507}, {"lat": 47.9969967, "lon": 0.2283596}, {"lat": 47.9969201, "lon": 0.2284026}, {"lat": 47.9968755, "lon": 0.228236}, {"lat": 47.9967469, "lon": 0.2283138}, {"lat": 47.9967214, "lon": 0.2282178}, {"lat": 47.9965549, "lon": 0.2283201}, {"lat": 47.9966097, "lon": 0.228527}, {"lat": 47.9966626, "lon": 0.2287264}], "tags": {"building": "data_center", "name": "Sartera", "source": "cadastre-dgi-fr source : Direction G\u00e9n\u00e9rale des Imp\u00f4ts - Cadastre. Mise \u00e0 jour : 2010", "telecom": "data_center"}}, {"type": "way", "id": 66670655, "bounds": {"minlat": 45.7839092, "minlon": 3.1305418, "maxlat": 45.7842935, "maxlon": 3.1311262}, "geometry": [{"lat": 45.7842259, "lon": 3.1308809}, {"lat": 45.7840827, "lon": 3.1305418}, {"lat": 45.7839092, "lon": 3.130693}, {"lat": 45.7840921, "lon": 3.1311262}, {"lat": 45.7842453, "lon": 3.1309963}, {"lat": 45.7842458, "lon": 3.1309959}, {"lat": 45.7842565, "lon": 3.1309865}, {"lat": 45.7842935, "lon": 3.130954}, {"lat": 45.7842539, "lon": 3.1308595}, {"lat": 45.7842259, "lon": 3.1308809}], "tags": {"building": "yes", "name": "Datacenter IBO", "operator": "IBO", "source": "cadastre-dgi-fr source : Direction G\u00e9n\u00e9rale des Imp\u00f4ts - Cadastre. Mise \u00e0 jour : 2010", "telecom": "data_center"}}, {"type": "way", "id": 66911687, "bounds": {"minlat": 45.8073858, "minlon": 3.1419846, "maxlat": 45.8080525, "maxlon": 3.1427885}, "geometry": [{"lat": 45.8079511, "lon": 3.142051}, {"lat": 45.8074447, "lon": 3.1419846}, {"lat": 45.8074247, "lon": 3.1422949}, {"lat": 45.8073901, "lon": 3.1422908}, {"lat": 45.8073858, "lon": 3.1423551}, {"lat": 45.8074205, "lon": 3.1423592}, {"lat": 45.8073979, "lon": 3.1427068}, {"lat": 45.8080191, "lon": 3.1427885}, {"lat": 45.8080319, "lon": 3.1425949}, {"lat": 45.8080419, "lon": 3.1425965}, {"lat": 45.8080525, "lon": 3.1424338}, {"lat": 45.8079569, "lon": 3.1424209}, {"lat": 45.807968, "lon": 3.1422502}, {"lat": 45.8079384, "lon": 3.1422462}, {"lat": 45.8079511, "lon": 3.142051}], "tags": {"addr:housenumber": "1", "addr:street": "Rue de Chantemerle", "building": "yes", "building:levels": "1", "name": "Datacenter IBM", "operator": "IBM", "source": "cadastre-dgi-fr source : Direction G\u00e9n\u00e9rale des Imp\u00f4ts - Cadastre. Mise \u00e0 jour : 2010", "telecom": "data_center"}}, {"type": "way", "id": 68937644, "bounds": {"minlat": 43.3027714, "minlon": 5.3770635, "maxlat": 43.3030834, "maxlon": 5.377384}, "geometry": [{"lat": 43.3027714, "lon": 5.3772356}, {"lat": 43.3028369, "lon": 5.377384}, {"lat": 43.3030805, "lon": 5.3772396}, {"lat": 43.303081, "lon": 5.3771812}, {"lat": 43.3030834, "lon": 5.3771794}, {"lat": 43.3030466, "lon": 5.3770635}, {"lat": 43.3030211, "lon": 5.3770794}, {"lat": 43.3030228, "lon": 5.3770859}, {"lat": 43.3027714, "lon": 5.3772356}], "tags": {"building": "yes", "building:levels": "3", "name": "Marseille Nedelec", "operator": "Orange", "source": "cadastre-dgi-fr source : Direction G\u00e9n\u00e9rale des Imp\u00f4ts - Cadastre. Mise \u00e0 jour : 2010", "telecom": "data_center"}}, {"type": "way", "id": 68940404, "bounds": {"minlat": 43.3106053, "minlon": 5.3733001, "maxlat": 43.3114276, "maxlon": 5.3745268}, "geometry": [{"lat": 43.3111255, "lon": 5.3733001}, {"lat": 43.3106129, "lon": 5.3736312}, {"lat": 43.3106053, "lon": 5.3736359}, {"lat": 43.3109092, "lon": 5.3745175}, {"lat": 43.3109276, "lon": 5.3745268}, {"lat": 43.311422, "lon": 5.3742054}, {"lat": 43.3114276, "lon": 5.3741814}, {"lat": 43.3111255, "lon": 5.3733001}], "tags": {"building": "data_center", "building:levels": "3", "contact:housenumber": "40", "data_center:power": "16 MW", "name": "Digital Realty MRS1", "old_name": "Interxion MRS1", "operator": "Digital Realty", "operator:wikidata": "Q5275969", "ref": "MRS1", "telecom": "data_center", "website": "https://www.digitalrealty.com/data-centers/emea/marseille/mrs1"}}, {"type": "way", "id": 68947782, "bounds": {"minlat": 43.3147502, "minlon": 5.3735034, "maxlat": 43.3155485, "maxlon": 5.3745868}, "geometry": [{"lat": 43.3153349, "lon": 5.3745868}, {"lat": 43.3155485, "lon": 5.3743186}, {"lat": 43.3154222, "lon": 5.3741283}, {"lat": 43.3154086, "lon": 5.3741083}, {"lat": 43.3153966, "lon": 5.3741241}, {"lat": 43.3153488, "lon": 5.374181}, {"lat": 43.3149051, "lon": 5.3735034}, {"lat": 43.3148914, "lon": 5.3735214}, {"lat": 43.3148274, "lon": 5.3736016}, {"lat": 43.3147502, "lon": 5.3737021}, {"lat": 43.3153349, "lon": 5.3745868}], "tags": {"building": "office", "name": "Marseille St-Mauront", "operator": "Orange", "source": "cadastre-dgi-fr source : Direction G\u00e9n\u00e9rale des Imp\u00f4ts - Cadastre. Mise \u00e0 jour : 2010", "telecom": "data_center"}}, {"type": "way", "id": 69380828, "bounds": {"minlat": 47.4361074, "minlon": 0.7030792, "maxlat": 47.4365403, "maxlon": 0.7035201}, "geometry": [{"lat": 47.4365403, "lon": 0.7032555}, {"lat": 47.4361645, "lon": 0.7030792}, {"lat": 47.4361074, "lon": 0.7033439}, {"lat": 47.436138, "lon": 0.7033618}, {"lat": 47.4364831, "lon": 0.7035201}, {"lat": 47.4365403, "lon": 0.7032555}], "tags": {"building": "yes", "operator": "Bouygues T\u00e9l\u00e9com", "source": "cadastre-dgi-fr source : Direction G\u00e9n\u00e9rale des Imp\u00f4ts - Cadastre. Mise \u00e0 jour : 2010", "telecom": "data_center"}}, {"type": "way", "id": 69382833, "bounds": {"minlat": 47.4358466, "minlon": 0.6951518, "maxlat": 47.4361991, "maxlon": 0.6956837}, "geometry": [{"lat": 47.4358466, "lon": 0.6953428}, {"lat": 47.4359003, "lon": 0.6954744}, {"lat": 47.4359115, "lon": 0.6954647}, {"lat": 47.4359681, "lon": 0.6955923}, {"lat": 47.4360103, "lon": 0.6956837}, {"lat": 47.4361991, "lon": 0.6954987}, {"lat": 47.4361036, "lon": 0.6952852}, {"lat": 47.4360426, "lon": 0.6951518}, {"lat": 47.4358466, "lon": 0.6953428}], "tags": {"addr:city": "Tours", "addr:housenumber": "9", "addr:postcode": "37100", "addr:street": "Rue de Su\u00e8de", "building": "data_center", "name": "Groupe ADISTA", "operator": "ADISTA", "source": "cadastre-dgi-fr source : Direction G\u00e9n\u00e9rale des Imp\u00f4ts - Cadastre. Mise \u00e0 jour : 2010", "telecom": "data_center"}}, {"type": "way", "id": 69428487, "bounds": {"minlat": 49.3817162, "minlon": 1.0349529, "maxlat": 49.3819223, "maxlon": 1.035339}, "geometry": [{"lat": 49.3817187, "lon": 1.0350366}, {"lat": 49.3817312, "lon": 1.035339}, {"lat": 49.3819223, "lon": 1.0353207}, {"lat": 49.3819101, "lon": 1.0350183}, {"lat": 49.3819072, "lon": 1.0349529}, {"lat": 49.3817162, "lon": 1.0349713}, {"lat": 49.3817187, "lon": 1.0350366}], "tags": {"building": "yes", "operator": "Bouygues T\u00e9l\u00e9com", "operator:wikidata": "Q581438", "source": "cadastre-dgi-fr source : Direction G\u00e9n\u00e9rale des Imp\u00f4ts - Cadastre. Mise \u00e0 jour : 2010", "telecom": "data_center"}}, {"type": "way", "id": 69633445, "bounds": {"minlat": 43.3607383, "minlon": 5.3374154, "maxlat": 43.3616683, "maxlon": 5.3384456}, "geometry": [{"lat": 43.3612683, "lon": 5.3384456}, {"lat": 43.3616683, "lon": 5.3380597}, {"lat": 43.3613394, "lon": 5.3374154}, {"lat": 43.3607435, "lon": 5.3379947}, {"lat": 43.3607383, "lon": 5.3380154}, {"lat": 43.3607973, "lon": 5.3381319}, {"lat": 43.3608097, "lon": 5.3381304}, {"lat": 43.360882, "lon": 5.3382678}, {"lat": 43.36096, "lon": 5.3381944}, {"lat": 43.3609847, "lon": 5.3381703}, {"lat": 43.361015, "lon": 5.3382266}, {"lat": 43.3610313, "lon": 5.3382109}, {"lat": 43.3610599, "lon": 5.3382646}, {"lat": 43.3610735, "lon": 5.3382533}, {"lat": 43.3611015, "lon": 5.3383039}, {"lat": 43.3611161, "lon": 5.3382907}, {"lat": 43.3611437, "lon": 5.3383408}, {"lat": 43.3611573, "lon": 5.3383285}, {"lat": 43.3611839, "lon": 5.3383796}, {"lat": 43.3611982, "lon": 5.3383679}, {"lat": 43.3612282, "lon": 5.33842}, {"lat": 43.3612449, "lon": 5.3384039}, {"lat": 43.3612683, "lon": 5.3384456}], "tags": {"building": "data_center", "contact:housenumber": "71", "contact:street": "Avenue Andr\u00e9 Roussin", "name": "Free Pro - Datacenter Marseille (MAR02)", "operator": "Free Pro (Ex. Jaguar Network - DCForData)", "ref": "MAR02", "telecom": "data_center"}}, {"type": "way", "id": 70206291, "bounds": {"minlat": 48.7769048, "minlon": 2.2416851, "maxlat": 48.7770932, "maxlon": 2.2421687}, "geometry": [{"lat": 48.7769733, "lon": 2.2416851}, {"lat": 48.776955, "lon": 2.2417038}, {"lat": 48.7769048, "lon": 2.2421156}, {"lat": 48.7769176, "lon": 2.2421392}, {"lat": 48.7770293, "lon": 2.2421687}, {"lat": 48.7770465, "lon": 2.2421482}, {"lat": 48.7770932, "lon": 2.2417352}, {"lat": 48.7770834, "lon": 2.2417154}, {"lat": 48.7769733, "lon": 2.2416851}], "tags": {"building": "yes", "name": "Datacenter Bouygues T\u00e9l\u00e9com", "operator": "Bouygues T\u00e9l\u00e9com", "operator:wikidata": "Q581438", "operator:wikipedia": "fr:Bouygues Telecom", "source": "cadastre-dgi-fr source : Direction G\u00e9n\u00e9rale des Imp\u00f4ts - Cadastre. Mise \u00e0 jour : 2010", "telecom": "data_center"}}, {"type": "way", "id": 70207931, "bounds": {"minlat": 48.7766279, "minlon": 2.2417303, "maxlat": 48.776842, "maxlon": 2.2421572}, "geometry": [{"lat": 48.776842, "lon": 2.2417771}, {"lat": 48.7766746, "lon": 2.2417303}, {"lat": 48.7766279, "lon": 2.2421062}, {"lat": 48.7768113, "lon": 2.2421572}, {"lat": 48.7768206, "lon": 2.2420807}, {"lat": 48.7768055, "lon": 2.2420766}, {"lat": 48.776842, "lon": 2.2417771}], "tags": {"building": "yes", "name": "Datacenter Bouygues T\u00e9l\u00e9com", "operator": "Bouygues T\u00e9l\u00e9com", "operator:wikidata": "Q581438", "operator:wikipedia": "fr:Bouygues Telecom", "source": "cadastre-dgi-fr source : Direction G\u00e9n\u00e9rale des Imp\u00f4ts - Cadastre. Mise \u00e0 jour : 2010", "telecom": "data_center"}}, {"type": "way", "id": 70456520, "bounds": {"minlat": 48.7689362, "minlon": 2.22687, "maxlat": 48.7694771, "maxlon": 2.228265}, "geometry": [{"lat": 48.7694269, "lon": 2.2277747}, {"lat": 48.7694771, "lon": 2.2277695}, {"lat": 48.7694343, "lon": 2.22687}, {"lat": 48.7689362, "lon": 2.2269219}, {"lat": 48.7689792, "lon": 2.2278214}, {"lat": 48.7690268, "lon": 2.2278166}, {"lat": 48.7690299, "lon": 2.2278842}, {"lat": 48.7690052, "lon": 2.227887}, {"lat": 48.7690101, "lon": 2.2279957}, {"lat": 48.7689853, "lon": 2.2279981}, {"lat": 48.7689906, "lon": 2.2281168}, {"lat": 48.7690153, "lon": 2.2281143}, {"lat": 48.7690205, "lon": 2.2282261}, {"lat": 48.7690431, "lon": 2.2282237}, {"lat": 48.7690446, "lon": 2.2282577}, {"lat": 48.7692592, "lon": 2.2282286}, {"lat": 48.7692577, "lon": 2.2281946}, {"lat": 48.7693014, "lon": 2.2281902}, {"lat": 48.7693047, "lon": 2.228265}, {"lat": 48.7693789, "lon": 2.228257}, {"lat": 48.7693773, "lon": 2.2282234}, {"lat": 48.769447, "lon": 2.2282158}, {"lat": 48.7694269, "lon": 2.2277747}], "tags": {"building": "yes", "name": "Datacenter Bouygues T\u00e9l\u00e9com", "operator": "Bouygues T\u00e9l\u00e9com", "operator:wikidata": "Q581438", "source": "cadastre-dgi-fr source : Direction G\u00e9n\u00e9rale des Imp\u00f4ts - Cadastre. Mise \u00e0 jour : 2010", "telecom": "data_center"}}, {"type": "way", "id": 70894641, "bounds": {"minlat": 45.1550199, "minlon": 5.7399639, "maxlat": 45.1556412, "maxlon": 5.7415479}, "geometry": [{"lat": 45.1556412, "lon": 5.7400475}, {"lat": 45.1555547, "lon": 5.7400342}, {"lat": 45.1555561, "lon": 5.740013}, {"lat": 45.1555143, "lon": 5.7400073}, {"lat": 45.1555125, "lon": 5.740029}, {"lat": 45.1554057, "lon": 5.7400136}, {"lat": 45.1553583, "lon": 5.740006}, {"lat": 45.155253, "lon": 5.7399916}, {"lat": 45.1552541, "lon": 5.739969}, {"lat": 45.1552143, "lon": 5.7399639}, {"lat": 45.1552132, "lon": 5.7399854}, {"lat": 45.1551229, "lon": 5.7399719}, {"lat": 45.1550238, "lon": 5.7413186}, {"lat": 45.1550199, "lon": 5.7413703}, {"lat": 45.1551087, "lon": 5.7413847}, {"lat": 45.1551046, "lon": 5.7414366}, {"lat": 45.1551016, "lon": 5.7414863}, {"lat": 45.1551423, "lon": 5.7414912}, {"lat": 45.1551433, "lon": 5.7414748}, {"lat": 45.1552397, "lon": 5.7414879}, {"lat": 45.1552356, "lon": 5.7415423}, {"lat": 45.1552726, "lon": 5.7415455}, {"lat": 45.1553, "lon": 5.7415479}, {"lat": 45.1553017, "lon": 5.7415235}, {"lat": 45.1554038, "lon": 5.7415392}, {"lat": 45.155404, "lon": 5.7415328}, {"lat": 45.1554417, "lon": 5.7415375}, {"lat": 45.1554505, "lon": 5.741436}, {"lat": 45.1555403, "lon": 5.7414458}, {"lat": 45.1555422, "lon": 5.7414036}, {"lat": 45.1556343, "lon": 5.7401676}, {"lat": 45.1556364, "lon": 5.7401309}, {"lat": 45.1556412, "lon": 5.7400475}], "tags": {"building": "yes", "source": "cadastre-dgi-fr source : Direction G\u00e9n\u00e9rale des Imp\u00f4ts - Cadastre. Mise \u00e0 jour : 2010", "telecom": "data_center"}}, {"type": "way", "id": 72995274, "bounds": {"minlat": 48.9086102, "minlon": 2.3939258, "maxlat": 48.9100254, "maxlon": 2.3953392}, "geometry": [{"lat": 48.9089916, "lon": 2.3953299}, {"lat": 48.9089898, "lon": 2.3953392}, {"lat": 48.908998, "lon": 2.395336}, {"lat": 48.9090141, "lon": 2.3953248}, {"lat": 48.9090285, "lon": 2.3953111}, {"lat": 48.9090403, "lon": 2.3952975}, {"lat": 48.9090579, "lon": 2.3952694}, {"lat": 48.9090642, "lon": 2.3952559}, {"lat": 48.9090726, "lon": 2.3952328}, {"lat": 48.9090605, "lon": 2.3952244}, {"lat": 48.9090754, "lon": 2.3951749}, {"lat": 48.9090736, "lon": 2.3951731}, {"lat": 48.9090766, "lon": 2.3951611}, {"lat": 48.9090793, "lon": 2.3951629}, {"lat": 48.9090898, "lon": 2.3951279}, {"lat": 48.9090619, "lon": 2.3951065}, {"lat": 48.9090716, "lon": 2.3950733}, {"lat": 48.9090634, "lon": 2.3950663}, {"lat": 48.9091219, "lon": 2.3948714}, {"lat": 48.9091305, "lon": 2.3948765}, {"lat": 48.9091452, "lon": 2.3948295}, {"lat": 48.9091371, "lon": 2.3948229}, {"lat": 48.909198, "lon": 2.3946191}, {"lat": 48.9092925, "lon": 2.3946847}, {"lat": 48.9092972, "lon": 2.3946693}, {"lat": 48.9093293, "lon": 2.3946907}, {"lat": 48.9093325, "lon": 2.394679}, {"lat": 48.9094873, "lon": 2.3947856}, {"lat": 48.9094831, "lon": 2.3948}, {"lat": 48.9095138, "lon": 2.3948223}, {"lat": 48.9095174, "lon": 2.3948088}, {"lat": 48.9096733, "lon": 2.3949181}, {"lat": 48.9096619, "lon": 2.3949571}, {"lat": 48.9096925, "lon": 2.3949775}, {"lat": 48.9096634, "lon": 2.3950722}, {"lat": 48.9097079, "lon": 2.3951048}, {"lat": 48.9097268, "lon": 2.3950451}, {"lat": 48.9098353, "lon": 2.3951219}, {"lat": 48.9098589, "lon": 2.3950487}, {"lat": 48.9098939, "lon": 2.3950725}, {"lat": 48.9100254, "lon": 2.3946431}, {"lat": 48.9097421, "lon": 2.3944456}, {"lat": 48.9097466, "lon": 2.3944305}, {"lat": 48.9097164, "lon": 2.3944088}, {"lat": 48.9097118, "lon": 2.3944236}, {"lat": 48.9095572, "lon": 2.3943168}, {"lat": 48.9095688, "lon": 2.3942783}, {"lat": 48.9094757, "lon": 2.3942127}, {"lat": 48.9094641, "lon": 2.3942526}, {"lat": 48.9094014, "lon": 2.3942099}, {"lat": 48.9094322, "lon": 2.3941085}, {"lat": 48.9092199, "lon": 2.3939592}, {"lat": 48.9092141, "lon": 2.393977}, {"lat": 48.9091423, "lon": 2.3939258}, {"lat": 48.9091038, "lon": 2.3940546}, {"lat": 48.908948, "lon": 2.3939425}, {"lat": 48.9089304, "lon": 2.3939936}, {"lat": 48.9089142, "lon": 2.3939834}, {"lat": 48.9088728, "lon": 2.3941156}, {"lat": 48.9088902, "lon": 2.3941285}, {"lat": 48.9087788, "lon": 2.3944958}, {"lat": 48.90873, "lon": 2.3946511}, {"lat": 48.9086406, "lon": 2.3945903}, {"lat": 48.908621, "lon": 2.3946567}, {"lat": 48.9086593, "lon": 2.3946823}, {"lat": 48.9086102, "lon": 2.394851}, {"lat": 48.9086585, "lon": 2.3948862}, {"lat": 48.9086446, "lon": 2.3949382}, {"lat": 48.9088004, "lon": 2.3950465}, {"lat": 48.9087745, "lon": 2.3951344}, {"lat": 48.9088044, "lon": 2.3951549}, {"lat": 48.9088021, "lon": 2.3951635}, {"lat": 48.9089599, "lon": 2.3952743}, {"lat": 48.9089964, "lon": 2.3953008}, {"lat": 48.9089916, "lon": 2.3953299}], "tags": {"building": "data_center", "name": "Orange - Aubervilliers", "operator": "Orange", "source": "extraction vectorielle v1 cadastre-dgi-fr source : Direction G\u00e9n\u00e9rale des Imp\u00f4ts - Cadas. Mise \u00e0 jour : 2010", "telecom": "data_center"}}, {"type": "way", "id": 72996440, "bounds": {"minlat": 48.9039838, "minlon": 2.3707299, "maxlat": 48.904547, "maxlon": 2.3713634}, "geometry": [{"lat": 48.904547, "lon": 2.3708755}, {"lat": 48.9043457, "lon": 2.3708113}, {"lat": 48.9043495, "lon": 2.3707854}, {"lat": 48.9042487, "lon": 2.3707544}, {"lat": 48.9042454, "lon": 2.3707843}, {"lat": 48.9040532, "lon": 2.3707299}, {"lat": 48.9039838, "lon": 2.3712185}, {"lat": 48.9044746, "lon": 2.3713634}, {"lat": 48.904547, "lon": 2.3708755}], "tags": {"addr:city": "Aubervilliers", "addr:housenumber": "4", "addr:postcode": "93300", "addr:street": "Rue du Sel", "building": "data_center", "name": "Digital Realty Paris PAR5", "operator": "Digital Realty", "operator:wikidata": "Q5275969", "ref": "PAR5", "source": "cadastre-dgi-fr source : Direction G\u00e9n\u00e9rale des Imp\u00f4ts - Cadastre. Mise \u00e0 jour : 2010", "telecom": "data_center"}}, {"type": "way", "id": 72996473, "bounds": {"minlat": 48.9097845, "minlon": 2.3945035, "maxlat": 48.9105107, "maxlon": 2.3959645}, "geometry": [{"lat": 48.9102942, "lon": 2.3945035}, {"lat": 48.9100319, "lon": 2.3951471}, {"lat": 48.9097845, "lon": 2.3957546}, {"lat": 48.9098719, "lon": 2.3958375}, {"lat": 48.9098784, "lon": 2.3959382}, {"lat": 48.9099121, "lon": 2.3959234}, {"lat": 48.9099553, "lon": 2.3959645}, {"lat": 48.9100011, "lon": 2.3958546}, {"lat": 48.9099898, "lon": 2.3958428}, {"lat": 48.9100315, "lon": 2.3957455}, {"lat": 48.9101061, "lon": 2.3958157}, {"lat": 48.9105107, "lon": 2.3948329}, {"lat": 48.9104335, "lon": 2.3947585}, {"lat": 48.9104697, "lon": 2.3946717}, {"lat": 48.9102942, "lon": 2.3945035}], "tags": {"building": "service", "name": "Datacenter Completel", "operator": "Completel", "source": "extraction vectorielle v1 cadastre-dgi-fr source : Direction G\u00e9n\u00e9rale des Imp\u00f4ts - Cadas. Mise \u00e0 jour : 2010", "telecom": "data_center"}}, {"type": "way", "id": 73003053, "bounds": {"minlat": 48.9091424, "minlon": 2.3964229, "maxlat": 48.9099313, "maxlon": 2.3979112}, "geometry": [{"lat": 48.9099313, "lon": 2.3965589}, {"lat": 48.9097815, "lon": 2.3964229}, {"lat": 48.9097111, "lon": 2.3965723}, {"lat": 48.909668, "lon": 2.3965295}, {"lat": 48.9096371, "lon": 2.3964988}, {"lat": 48.9096231, "lon": 2.3965287}, {"lat": 48.9096542, "lon": 2.3965593}, {"lat": 48.9096973, "lon": 2.3966019}, {"lat": 48.9095373, "lon": 2.3969428}, {"lat": 48.9094955, "lon": 2.3968982}, {"lat": 48.9094647, "lon": 2.3968653}, {"lat": 48.9094522, "lon": 2.3968927}, {"lat": 48.9094827, "lon": 2.3969246}, {"lat": 48.9095263, "lon": 2.3969702}, {"lat": 48.909169, "lon": 2.3977285}, {"lat": 48.9091568, "lon": 2.3977167}, {"lat": 48.9091498, "lon": 2.3977193}, {"lat": 48.9091424, "lon": 2.3977328}, {"lat": 48.9093083, "lon": 2.3979112}, {"lat": 48.9095926, "lon": 2.3973038}, {"lat": 48.9095812, "lon": 2.3972927}, {"lat": 48.9097367, "lon": 2.3969646}, {"lat": 48.9097325, "lon": 2.3969601}, {"lat": 48.9099141, "lon": 2.3965784}, {"lat": 48.9099197, "lon": 2.396583}, {"lat": 48.9099313, "lon": 2.3965589}], "tags": {"building": "yes", "name": "Datacenter Atos", "operator": "Atos", "source": "extraction vectorielle v1 cadastre-dgi-fr source : Direction G\u00e9n\u00e9rale des Imp\u00f4ts - Cadas. Mise \u00e0 jour : 2010", "telecom": "data_center"}}, {"type": "way", "id": 73005029, "bounds": {"minlat": 48.9086746, "minlon": 2.396154, "maxlat": 48.9096564, "maxlon": 2.3976689}, "geometry": [{"lat": 48.9096371, "lon": 2.3964988}, {"lat": 48.9096564, "lon": 2.3964563}, {"lat": 48.9093769, "lon": 2.396154}, {"lat": 48.9093434, "lon": 2.3962249}, {"lat": 48.909282, "lon": 2.3961616}, {"lat": 48.9091612, "lon": 2.3964176}, {"lat": 48.9091295, "lon": 2.3964847}, {"lat": 48.9090936, "lon": 2.3964465}, {"lat": 48.9090636, "lon": 2.3964147}, {"lat": 48.9090645, "lon": 2.396412}, {"lat": 48.9089319, "lon": 2.3962702}, {"lat": 48.9087902, "lon": 2.3965745}, {"lat": 48.9086746, "lon": 2.3968234}, {"lat": 48.9088039, "lon": 2.3969642}, {"lat": 48.9090436, "lon": 2.3964557}, {"lat": 48.9090742, "lon": 2.3964892}, {"lat": 48.9091145, "lon": 2.3965333}, {"lat": 48.9091137, "lon": 2.3965357}, {"lat": 48.9091167, "lon": 2.3965384}, {"lat": 48.9088684, "lon": 2.3970639}, {"lat": 48.9090249, "lon": 2.3972357}, {"lat": 48.9089987, "lon": 2.3972929}, {"lat": 48.9089745, "lon": 2.3973456}, {"lat": 48.9088675, "lon": 2.3972296}, {"lat": 48.9088517, "lon": 2.3972629}, {"lat": 48.9088013, "lon": 2.3972071}, {"lat": 48.9087545, "lon": 2.3973069}, {"lat": 48.9088035, "lon": 2.397359}, {"lat": 48.9090359, "lon": 2.3976159}, {"lat": 48.9090364, "lon": 2.3976144}, {"lat": 48.9090867, "lon": 2.3976689}, {"lat": 48.9091328, "lon": 2.3975709}, {"lat": 48.9090816, "lon": 2.3975137}, {"lat": 48.9090977, "lon": 2.3974813}, {"lat": 48.9089917, "lon": 2.397365}, {"lat": 48.9090164, "lon": 2.3973121}, {"lat": 48.9090426, "lon": 2.397256}, {"lat": 48.9092004, "lon": 2.3974268}, {"lat": 48.9094522, "lon": 2.3968927}, {"lat": 48.9094647, "lon": 2.3968653}, {"lat": 48.9094715, "lon": 2.3968517}, {"lat": 48.9091921, "lon": 2.3965495}, {"lat": 48.9092226, "lon": 2.3964845}, {"lat": 48.9092469, "lon": 2.3964327}, {"lat": 48.9095251, "lon": 2.3967375}, {"lat": 48.9096231, "lon": 2.3965287}, {"lat": 48.9096371, "lon": 2.3964988}], "tags": {"building": "yes", "name": "Datacenter Atos", "operator": "Atos", "source": "extraction vectorielle v1 cadastre-dgi-fr source : Direction G\u00e9n\u00e9rale des Imp\u00f4ts - Cadas. Mise \u00e0 jour : 2010", "telecom": "data_center"}}, {"type": "way", "id": 73005728, "bounds": {"minlat": 48.9066187, "minlon": 2.368641, "maxlat": 48.9077941, "maxlon": 2.3704377}, "geometry": [{"lat": 48.9067492, "lon": 2.368641}, {"lat": 48.9066361, "lon": 2.3699881}, {"lat": 48.9066187, "lon": 2.3703956}, {"lat": 48.9069168, "lon": 2.3704377}, {"lat": 48.9069313, "lon": 2.3701776}, {"lat": 48.9074208, "lon": 2.3702402}, {"lat": 48.9077079, "lon": 2.3702745}, {"lat": 48.9077541, "lon": 2.3694747}, {"lat": 48.9077941, "lon": 2.368779}, {"lat": 48.9075065, "lon": 2.3687404}, {"lat": 48.9067492, "lon": 2.368641}], "tags": {"addr:city": "Aubervilliers", "addr:housenumber": "20", "addr:postcode": "93300", "addr:street": "Rue des Gardinoux", "building": "industrial", "name": "Interxion PAR2 - B\u00e2timent 501", "operator": "Digital Realty", "operator:wikidata": "Q5275969", "source": "extraction vectorielle v1 cadastre-dgi-fr source : Direction G\u00e9n\u00e9rale des Imp\u00f4ts - Cadas. Mise \u00e0 jour : 2010", "telecom": "data_center"}}, {"type": "way", "id": 73007043, "bounds": {"minlat": 48.9048548, "minlon": 2.3695546, "maxlat": 48.905732, "maxlon": 2.3700281}, "geometry": [{"lat": 48.9048666, "lon": 2.3695546}, {"lat": 48.9048548, "lon": 2.369667}, {"lat": 48.9050333, "lon": 2.3698136}, {"lat": 48.9052006, "lon": 2.3699023}, {"lat": 48.9053984, "lon": 2.3699554}, {"lat": 48.9057014, "lon": 2.3700281}, {"lat": 48.905732, "lon": 2.3697621}, {"lat": 48.9048666, "lon": 2.3695546}], "tags": {"addr:city": "Aubervilliers", "addr:housenumber": "34", "addr:postcode": "93300", "addr:street": "Rue du Mimosa", "building": "data_center", "name": "Equinix PA5", "operator": "Equinix", "operator:wikidata": "Q851641", "operator:wikipedia": "en:Equinix", "ref": "PA5", "source": "extraction vectorielle v1 cadastre-dgi-fr source : Direction G\u00e9n\u00e9rale des Imp\u00f4ts - Cadas. Mise \u00e0 jour : 2010", "telecom": "data_center", "website": "https://www.equinix.com/data-centers/europe-colocation/france-colocation/paris-data-centers/pa5", "wikidata:operator": "Q851641"}}, {"type": "way", "id": 73008524, "bounds": {"minlat": 48.9097377, "minlon": 2.3675364, "maxlat": 48.9106379, "maxlon": 2.3689237}, "geometry": [{"lat": 48.9099332, "lon": 2.3675364}, {"lat": 48.9099235, "lon": 2.3676531}, {"lat": 48.909821, "lon": 2.3676349}, {"lat": 48.9097377, "lon": 2.3687034}, {"lat": 48.9098386, "lon": 2.3687209}, {"lat": 48.9098312, "lon": 2.3688163}, {"lat": 48.9103828, "lon": 2.3689237}, {"lat": 48.910465, "lon": 2.368777}, {"lat": 48.910535, "lon": 2.3679326}, {"lat": 48.9104629, "lon": 2.3679189}, {"lat": 48.9104735, "lon": 2.3677906}, {"lat": 48.9105874, "lon": 2.3678119}, {"lat": 48.9105975, "lon": 2.3678102}, {"lat": 48.9106053, "lon": 2.3678068}, {"lat": 48.9106131, "lon": 2.3678012}, {"lat": 48.9106204, "lon": 2.3677933}, {"lat": 48.9106268, "lon": 2.3677831}, {"lat": 48.9106315, "lon": 2.3677728}, {"lat": 48.9106354, "lon": 2.3677606}, {"lat": 48.9106375, "lon": 2.3677472}, {"lat": 48.9106379, "lon": 2.3677318}, {"lat": 48.9106372, "lon": 2.3677204}, {"lat": 48.9106348, "lon": 2.3677078}, {"lat": 48.9106312, "lon": 2.3676955}, {"lat": 48.9106262, "lon": 2.3676852}, {"lat": 48.9106233, "lon": 2.3676808}, {"lat": 48.9106194, "lon": 2.3676752}, {"lat": 48.9106126, "lon": 2.367668}, {"lat": 48.9106008, "lon": 2.3676603}, {"lat": 48.9099332, "lon": 2.3675364}], "tags": {"addr:housenumber": "10", "addr:street": "Rue Waldeck Rochet", "building": "data_center", "name": "Equinix PA6", "operator": "Equinix", "operator:wikidata": "Q851641", "ref": "PA6", "source": "cadastre-dgi-fr source : Direction G\u00e9n\u00e9rale des Imp\u00f4ts - Cadastre. Mise \u00e0 jour : 2020", "telecom": "data_center", "website": "https://www.equinix.com/data-centers/europe-colocation/france-colocation/paris-data-centers/pa6", "wikidata:operator": "Q851641"}}, {"type": "way", "id": 73120395, "bounds": {"minlat": 48.8999019, "minlon": 2.4208703, "maxlat": 48.9007545, "maxlon": 2.423185}, "geometry": [{"lat": 48.9007545, "lon": 2.4211169}, {"lat": 48.9002584, "lon": 2.4208703}, {"lat": 48.8999019, "lon": 2.4225133}, {"lat": 48.9000104, "lon": 2.422569}, {"lat": 48.8999155, "lon": 2.4229964}, {"lat": 48.8999807, "lon": 2.4230277}, {"lat": 48.9000338, "lon": 2.4230538}, {"lat": 48.9001657, "lon": 2.4231187}, {"lat": 48.9002234, "lon": 2.423147}, {"lat": 48.9003041, "lon": 2.423185}, {"lat": 48.9003634, "lon": 2.4229178}, {"lat": 48.9005296, "lon": 2.4221422}, {"lat": 48.9007545, "lon": 2.4211169}], "tags": {"addr:city": "Pantin", "addr:housenumber": "110", "addr:postcode": "93500", "addr:street": "Bis avenue du General Leclerc", "building": "data_center", "name": "Equinix PA4", "operator": "Equinix", "operator:wikidata": "Q851641", "ref": "PA4", "source": "cadastre-dgi-fr source : Direction G\u00e9n\u00e9rale des Finances Publiques - Cadastre. Mise \u00e0 jour : 2020 / BDOrtho IGN 2020", "telecom": "data_center", "website": "https://www.equinix.com/data-centers/europe-colocation/france-colocation/paris-data-centers/pa4", "wikidata:operator": "Q851641"}}, {"type": "way", "id": 73131890, "bounds": {"minlat": 49.2528723, "minlon": 1.1771734, "maxlat": 49.2534738, "maxlon": 1.1778958}, "geometry": [{"lat": 49.2528825, "lon": 1.1774736}, {"lat": 49.2528975, "lon": 1.1775223}, {"lat": 49.2528723, "lon": 1.1775415}, {"lat": 49.2529054, "lon": 1.177647}, {"lat": 49.2529472, "lon": 1.1776654}, {"lat": 49.2530165, "lon": 1.1776192}, {"lat": 49.253004, "lon": 1.1775768}, {"lat": 49.2530374, "lon": 1.177554}, {"lat": 49.2531395, "lon": 1.1778958}, {"lat": 49.2533576, "lon": 1.1777312}, {"lat": 49.2534738, "lon": 1.1776521}, {"lat": 49.253414, "lon": 1.1774499}, {"lat": 49.2532989, "lon": 1.1775295}, {"lat": 49.2532801, "lon": 1.177461}, {"lat": 49.2533938, "lon": 1.1773832}, {"lat": 49.2533337, "lon": 1.1771734}, {"lat": 49.2531293, "lon": 1.1773239}, {"lat": 49.2530707, "lon": 1.1772961}, {"lat": 49.2530364, "lon": 1.1771856}, {"lat": 49.2529319, "lon": 1.1772588}, {"lat": 49.2529781, "lon": 1.1773825}, {"lat": 49.2528825, "lon": 1.1774736}], "tags": {"addr:housename": "Datacenter", "addr:housenumber": "9200", "addr:postcode": "27100", "addr:street": "Voie des Clouets", "building": "yes", "name": "SFR", "note": "Ancien DC Altitude T\u00e9l\u00e9com, rach\u00e9t\u00e9 par Completel, devenu SFR Business", "operator": "SFR", "operator:wikidata": "Q218765", "source": "cadastre-dgi-fr source : Direction G\u00e9n\u00e9rale des Imp\u00f4ts - Cadastre. Mise \u00e0 jour : 2010", "telecom": "data_center"}}, {"type": "way", "id": 73137489, "bounds": {"minlat": 49.2650188, "minlon": 1.2209312, "maxlat": 49.2654255, "maxlon": 1.2221529}, "geometry": [{"lat": 49.2653861, "lon": 1.2209696}, {"lat": 49.2652712, "lon": 1.220979}, {"lat": 49.2652699, "lon": 1.2209312}, {"lat": 49.2652142, "lon": 1.2209359}, {"lat": 49.2652155, "lon": 1.220983}, {"lat": 49.2650188, "lon": 1.220998}, {"lat": 49.2650357, "lon": 1.2215243}, {"lat": 49.2650499, "lon": 1.2219438}, {"lat": 49.2652698, "lon": 1.2219306}, {"lat": 49.2652767, "lon": 1.2221529}, {"lat": 49.2654255, "lon": 1.222143}, {"lat": 49.2654181, "lon": 1.2219319}, {"lat": 49.2654038, "lon": 1.2215058}, {"lat": 49.2653861, "lon": 1.2209696}], "tags": {"building": "yes", "name": "Datacenter BNP", "operator": "BNP", "source": "cadastre-dgi-fr source : Direction G\u00e9n\u00e9rale des Imp\u00f4ts - Cadastre. Mise \u00e0 jour : 2010", "telecom": "data_center"}}, {"type": "way", "id": 74475616, "bounds": {"minlat": 48.8995657, "minlon": 2.2945423, "maxlat": 48.9008046, "maxlon": 2.2961014}, "geometry": [{"lat": 48.9000851, "lon": 2.2957611}, {"lat": 48.9002668, "lon": 2.2955863}, {"lat": 48.900224, "lon": 2.2954843}, {"lat": 48.9004018, "lon": 2.2953155}, {"lat": 48.9004181, "lon": 2.295299}, {"lat": 48.9008046, "lon": 2.2949285}, {"lat": 48.9006532, "lon": 2.2945664}, {"lat": 48.9006505, "lon": 2.2945687}, {"lat": 48.900612, "lon": 2.2946044}, {"lat": 48.9005965, "lon": 2.2946185}, {"lat": 48.9005722, "lon": 2.2945589}, {"lat": 48.9005564, "lon": 2.2945745}, {"lat": 48.9005442, "lon": 2.2945423}, {"lat": 48.9004812, "lon": 2.2946017}, {"lat": 48.9004615, "lon": 2.2945536}, {"lat": 48.9004173, "lon": 2.294596}, {"lat": 48.9004677, "lon": 2.2947197}, {"lat": 48.8997029, "lon": 2.2954528}, {"lat": 48.8998373, "lon": 2.2957725}, {"lat": 48.8998045, "lon": 2.2958053}, {"lat": 48.8997894, "lon": 2.2957727}, {"lat": 48.8996957, "lon": 2.2958649}, {"lat": 48.8996615, "lon": 2.295785}, {"lat": 48.8996712, "lon": 2.2957743}, {"lat": 48.8996442, "lon": 2.2957135}, {"lat": 48.8995998, "lon": 2.2957568}, {"lat": 48.8996124, "lon": 2.295789}, {"lat": 48.8995657, "lon": 2.2958382}, {"lat": 48.8996109, "lon": 2.2959466}, {"lat": 48.8995662, "lon": 2.2959919}, {"lat": 48.8996126, "lon": 2.2961014}, {"lat": 48.899793, "lon": 2.2959291}, {"lat": 48.8997809, "lon": 2.2958973}, {"lat": 48.8998236, "lon": 2.2958551}, {"lat": 48.8998221, "lon": 2.2958507}, {"lat": 48.9000354, "lon": 2.2956436}, {"lat": 48.9000851, "lon": 2.2957611}], "tags": {"addr:housenumber": "7-9", "building": "data_center", "name": "Global Switch", "operator": "Global Switch", "source": "extraction vectorielle v1 cadastre-dgi-fr source : Direction G\u00e9n\u00e9rale des Imp\u00f4ts - Cadas. Mise \u00e0 jour : 2010", "telecom": "data_center"}}, {"type": "way", "id": 74704589, "bounds": {"minlat": 43.5931399, "minlon": 1.3695649, "maxlat": 43.5937042, "maxlon": 1.3713987}, "geometry": [{"lat": 43.5934933, "lon": 1.3695674}, {"lat": 43.5934532, "lon": 1.3695662}, {"lat": 43.5934527, "lon": 1.3696015}, {"lat": 43.5934181, "lon": 1.3696005}, {"lat": 43.5934194, "lon": 1.3695653}, {"lat": 43.5934067, "lon": 1.3695649}, {"lat": 43.593362, "lon": 1.3696235}, {"lat": 43.5933594, "lon": 1.369633}, {"lat": 43.5933613, "lon": 1.369643}, {"lat": 43.593405, "lon": 1.3697045}, {"lat": 43.5934105, "lon": 1.3697046}, {"lat": 43.5934107, "lon": 1.3697169}, {"lat": 43.5933924, "lon": 1.3697164}, {"lat": 43.593392, "lon": 1.3697525}, {"lat": 43.5934102, "lon": 1.369753}, {"lat": 43.5934095, "lon": 1.3697654}, {"lat": 43.5933512, "lon": 1.3697639}, {"lat": 43.5933476, "lon": 1.3697652}, {"lat": 43.5933449, "lon": 1.3697675}, {"lat": 43.593344, "lon": 1.3697692}, {"lat": 43.5933422, "lon": 1.3697708}, {"lat": 43.5933404, "lon": 1.369775}, {"lat": 43.5933404, "lon": 1.3697772}, {"lat": 43.5933396, "lon": 1.3697796}, {"lat": 43.5933397, "lon": 1.3697868}, {"lat": 43.5933406, "lon": 1.369789}, {"lat": 43.5933406, "lon": 1.3697912}, {"lat": 43.5933425, "lon": 1.3697952}, {"lat": 43.5933453, "lon": 1.3697985}, {"lat": 43.5933481, "lon": 1.3698008}, {"lat": 43.5933499, "lon": 1.3698015}, {"lat": 43.5933672, "lon": 1.3698024}, {"lat": 43.5933667, "lon": 1.3698301}, {"lat": 43.593353, "lon": 1.3698298}, {"lat": 43.5933434, "lon": 1.3704385}, {"lat": 43.593347, "lon": 1.3704386}, {"lat": 43.5933443, "lon": 1.3705675}, {"lat": 43.5932951, "lon": 1.3706328}, {"lat": 43.5932867, "lon": 1.3706163}, {"lat": 43.5932783, "lon": 1.3706037}, {"lat": 43.5932681, "lon": 1.3705929}, {"lat": 43.5932571, "lon": 1.3705837}, {"lat": 43.593246, "lon": 1.3705764}, {"lat": 43.5932341, "lon": 1.3705713}, {"lat": 43.5932213, "lon": 1.3705681}, {"lat": 43.5932086, "lon": 1.3705674}, {"lat": 43.5931958, "lon": 1.3705686}, {"lat": 43.5931831, "lon": 1.370572}, {"lat": 43.5931714, "lon": 1.3705775}, {"lat": 43.5931605, "lon": 1.3705851}, {"lat": 43.5931497, "lon": 1.3705948}, {"lat": 43.5931399, "lon": 1.3706061}, {"lat": 43.5932738, "lon": 1.3707994}, {"lat": 43.5932568, "lon": 1.3708221}, {"lat": 43.5932726, "lon": 1.3708457}, {"lat": 43.5931492, "lon": 1.3710086}, {"lat": 43.5934207, "lon": 1.3713987}, {"lat": 43.5937042, "lon": 1.3710256}, {"lat": 43.5934346, "lon": 1.3706376}, {"lat": 43.5934382, "lon": 1.3704412}, {"lat": 43.5934537, "lon": 1.3704417}, {"lat": 43.5934555, "lon": 1.3703749}, {"lat": 43.593481, "lon": 1.3703755}, {"lat": 43.5934933, "lon": 1.3695674}], "tags": {"building": "yes", "name": "Oscar", "operator": "Air France", "source": "cadastre-dgi-fr source : Direction G\u00e9n\u00e9rale des Imp\u00f4ts - Cadastre. Mise \u00e0 jour : 2010", "telecom": "data_center"}}, {"type": "way", "id": 75757106, "bounds": {"minlat": 43.584531, "minlon": 3.8718232, "maxlat": 43.5847924, "maxlon": 3.8720897}, "geometry": [{"lat": 43.5847526, "lon": 3.8718232}, {"lat": 43.584632, "lon": 3.8718736}, {"lat": 43.5846314, "lon": 3.8718988}, {"lat": 43.5845571, "lon": 3.8719103}, {"lat": 43.5845568, "lon": 3.8719049}, {"lat": 43.5845561, "lon": 3.8718968}, {"lat": 43.584531, "lon": 3.8719}, {"lat": 43.5845461, "lon": 3.8720897}, {"lat": 43.5845721, "lon": 3.8720865}, {"lat": 43.584571, "lon": 3.8720739}, {"lat": 43.5846223, "lon": 3.8720666}, {"lat": 43.5846466, "lon": 3.872075}, {"lat": 43.5847924, "lon": 3.8720052}, {"lat": 43.5847565, "lon": 3.8718413}, {"lat": 43.5847526, "lon": 3.8718232}], "tags": {"building": "warehouse", "height": "7", "name": "Zayo Montpellier", "operator": "Zayo", "source": "cadastre-dgi-fr source : Direction G\u00e9n\u00e9rale des Imp\u00f4ts - Cadastre. Mise \u00e0 jour : 2010", "telecom": "data_center"}}, {"type": "way", "id": 75758209, "bounds": {"minlat": 43.5829498, "minlon": 3.8703806, "maxlat": 43.5833524, "maxlon": 3.8710334}, "geometry": [{"lat": 43.5833161, "lon": 3.8706244}, {"lat": 43.5833247, "lon": 3.8706335}, {"lat": 43.5833524, "lon": 3.8705836}, {"lat": 43.5833324, "lon": 3.8705627}, {"lat": 43.5833487, "lon": 3.8705333}, {"lat": 43.5832591, "lon": 3.8704386}, {"lat": 43.5832042, "lon": 3.8703812}, {"lat": 43.5831883, "lon": 3.8704115}, {"lat": 43.583159, "lon": 3.8703806}, {"lat": 43.5829586, "lon": 3.8707406}, {"lat": 43.5829667, "lon": 3.8707488}, {"lat": 43.5829498, "lon": 3.87078}, {"lat": 43.5830014, "lon": 3.8708337}, {"lat": 43.5829921, "lon": 3.8708506}, {"lat": 43.5830173, "lon": 3.870877}, {"lat": 43.5830887, "lon": 3.8709517}, {"lat": 43.5831146, "lon": 3.870979}, {"lat": 43.5831086, "lon": 3.8709897}, {"lat": 43.5831508, "lon": 3.8710334}, {"lat": 43.5832294, "lon": 3.8708917}, {"lat": 43.5831906, "lon": 3.8708517}, {"lat": 43.5833161, "lon": 3.8706244}], "tags": {"building": "yes", "height": "4", "operator": "SFR", "source": "cadastre-dgi-fr source : Direction G\u00e9n\u00e9rale des Imp\u00f4ts - Cadastre. Mise \u00e0 jour : 2010", "telecom": "data_center"}}, {"type": "way", "id": 75759038, "bounds": {"minlat": 43.60075, "minlon": 3.8624078, "maxlat": 43.6010798, "maxlon": 3.8628994}, "geometry": [{"lat": 43.6010798, "lon": 3.8625418}, {"lat": 43.6008751, "lon": 3.8624078}, {"lat": 43.60075, "lon": 3.8627617}, {"lat": 43.6009546, "lon": 3.8628994}, {"lat": 43.6010798, "lon": 3.8625418}], "tags": {"building": "service", "height": "6", "name": "Cogent Montpellier", "operator": "Cogent", "source": "cadastre-dgi-fr source : Direction G\u00e9n\u00e9rale des Imp\u00f4ts - Cadastre. Mise \u00e0 jour : 2010", "telecom": "data_center"}}, {"type": "way", "id": 76181813, "bounds": {"minlat": 43.6190838, "minlon": 3.9086851, "maxlat": 43.619492, "maxlon": 3.9095071}, "geometry": [{"lat": 43.619492, "lon": 3.909401}, {"lat": 43.6193267, "lon": 3.9086851}, {"lat": 43.6190838, "lon": 3.9087911}, {"lat": 43.6192492, "lon": 3.9095071}, {"lat": 43.619492, "lon": 3.909401}], "tags": {"building": "yes", "height": "8", "source": "cadastre-dgi-fr source : Direction G\u00e9n\u00e9rale des Imp\u00f4ts - Cadastre. Mise \u00e0 jour : 2010", "telecom": "data_center", "wall": "no"}}, {"type": "way", "id": 76296417, "bounds": {"minlat": 43.6201459, "minlon": 1.4221814, "maxlat": 43.6205107, "maxlon": 1.4229273}, "geometry": [{"lat": 43.6202351, "lon": 1.4221814}, {"lat": 43.6201639, "lon": 1.4222358}, {"lat": 43.6201459, "lon": 1.4222495}, {"lat": 43.6203702, "lon": 1.4228034}, {"lat": 43.6203919, "lon": 1.4227864}, {"lat": 43.6204484, "lon": 1.4229273}, {"lat": 43.6205107, "lon": 1.4228808}, {"lat": 43.6202898, "lon": 1.4223202}, {"lat": 43.6202351, "lon": 1.4221814}], "tags": {"building": "service", "name": "Cogent Toulouse", "operator": "Cogent", "source": "cadastre-dgi-fr source : Direction G\u00e9n\u00e9rale des Imp\u00f4ts - Cadastre. Mise \u00e0 jour : 2010", "telecom": "data_center"}}, {"type": "way", "id": 76322800, "bounds": {"minlat": 43.6341354, "minlon": 1.4746734, "maxlat": 43.6345918, "maxlon": 1.4751967}, "geometry": [{"lat": 43.6344339, "lon": 1.4748221}, {"lat": 43.6344303, "lon": 1.4748276}, {"lat": 43.634422, "lon": 1.4748191}, {"lat": 43.6344256, "lon": 1.4748135}, {"lat": 43.634288, "lon": 1.4746734}, {"lat": 43.6342115, "lon": 1.4748145}, {"lat": 43.6341728, "lon": 1.4747749}, {"lat": 43.6341354, "lon": 1.4748448}, {"lat": 43.6343118, "lon": 1.4750234}, {"lat": 43.6343136, "lon": 1.4750212}, {"lat": 43.6343228, "lon": 1.4750297}, {"lat": 43.634321, "lon": 1.475033}, {"lat": 43.6344789, "lon": 1.4751967}, {"lat": 43.6345918, "lon": 1.4749857}, {"lat": 43.6344339, "lon": 1.4748221}], "tags": {"building": "yes", "operator": "Bouygues T\u00e9l\u00e9com", "source": "cadastre-dgi-fr source : Direction G\u00e9n\u00e9rale des Imp\u00f4ts - Cadastre. Mise \u00e0 jour : 2010", "telecom": "data_center"}}, {"type": "way", "id": 76329433, "bounds": {"minlat": 43.6194885, "minlon": 1.4209874, "maxlat": 43.6202873, "maxlon": 1.4217185}, "geometry": [{"lat": 43.6195047, "lon": 1.4209874}, {"lat": 43.6194885, "lon": 1.4212164}, {"lat": 43.6196136, "lon": 1.421461}, {"lat": 43.6198526, "lon": 1.4214901}, {"lat": 43.6198387, "lon": 1.4217185}, {"lat": 43.6202517, "lon": 1.4215513}, {"lat": 43.6202529, "lon": 1.4215373}, {"lat": 43.6202602, "lon": 1.4214414}, {"lat": 43.620261, "lon": 1.4214337}, {"lat": 43.6202681, "lon": 1.421339}, {"lat": 43.6202701, "lon": 1.4213168}, {"lat": 43.6202773, "lon": 1.4212209}, {"lat": 43.6202784, "lon": 1.4212117}, {"lat": 43.6202863, "lon": 1.4211057}, {"lat": 43.6202873, "lon": 1.4210951}, {"lat": 43.6195047, "lon": 1.4209874}], "tags": {"addr:city": "Toulouse", "addr:housenumber": "131C", "addr:postcode": "31200", "addr:street": "Chemin du Sang de Serp", "building": "yes", "description": "data center", "name": "Fullsave Toulouse", "ref": "TLS00", "source": "cadastre-dgi-fr source : Direction G\u00e9n\u00e9rale des Imp\u00f4ts - Cadastre. Mise \u00e0 jour : 2010", "telecom": "data_center", "website": "https://www.fullsave.com/tls00/"}}, {"type": "way", "id": 76727775, "bounds": {"minlat": 48.9248546, "minlon": 2.2228806, "maxlat": 48.9259133, "maxlon": 2.2244499}, "geometry": [{"lat": 48.9250482, "lon": 2.2242439}, {"lat": 48.9251069, "lon": 2.2241798}, {"lat": 48.9252429, "lon": 2.2244499}, {"lat": 48.9254739, "lon": 2.2241951}, {"lat": 48.9253553, "lon": 2.223951}, {"lat": 48.9254083, "lon": 2.2238875}, {"lat": 48.9255336, "lon": 2.2241461}, {"lat": 48.9259133, "lon": 2.2237208}, {"lat": 48.9254898, "lon": 2.2228806}, {"lat": 48.9252593, "lon": 2.2231421}, {"lat": 48.9252236, "lon": 2.2230696}, {"lat": 48.9251476, "lon": 2.2231559}, {"lat": 48.9252188, "lon": 2.2233004}, {"lat": 48.9251444, "lon": 2.2233851}, {"lat": 48.925209, "lon": 2.223516}, {"lat": 48.9251684, "lon": 2.223562}, {"lat": 48.9251477, "lon": 2.2235195}, {"lat": 48.9248546, "lon": 2.2238536}, {"lat": 48.9250482, "lon": 2.2242439}], "tags": {"building": "industrial", "name": "OPCORE DC1", "operator": "OPCORE", "source": "cadastre-dgi-fr source : Direction G\u00e9n\u00e9rale des Imp\u00f4ts - Cadastre. Mise \u00e0 jour : 2010", "telecom": "data_center"}}, {"type": "way", "id": 79145624, "bounds": {"minlat": 48.6741532, "minlon": 2.1961972, "maxlat": 48.6753377, "maxlon": 2.1981372}, "geometry": [{"lat": 48.6747334, "lon": 2.1961972}, {"lat": 48.6751509, "lon": 2.1974312}, {"lat": 48.6751846, "lon": 2.1975307}, {"lat": 48.6752919, "lon": 2.197448}, {"lat": 48.6753377, "lon": 2.1975833}, {"lat": 48.6751435, "lon": 2.197733}, {"lat": 48.6751295, "lon": 2.1976915}, {"lat": 48.6748886, "lon": 2.1978773}, {"lat": 48.6749366, "lon": 2.198019}, {"lat": 48.6747834, "lon": 2.1981372}, {"lat": 48.6747349, "lon": 2.1979939}, {"lat": 48.6746377, "lon": 2.1980688}, {"lat": 48.674405, "lon": 2.197381}, {"lat": 48.6743658, "lon": 2.1974112}, {"lat": 48.6743267, "lon": 2.1972956}, {"lat": 48.6743637, "lon": 2.197267}, {"lat": 48.6741532, "lon": 2.1966447}, {"lat": 48.6747334, "lon": 2.1961972}], "tags": {"addr:city": "Les Ulis", "addr:housenumber": "15", "addr:postcode": "91400", "addr:street": "Avenue du Cap Horn", "building": "data_center", "name": "Colt Paris 3", "operator": "Colt", "source": "cadastre-dgi-fr source : Direction G\u00e9n\u00e9rale des Imp\u00f4ts - Cadastre. Mise \u00e0 jour : 2009", "telecom": "data_center"}}, {"type": "way", "id": 79891578, "bounds": {"minlat": 45.724094, "minlon": 4.8161162, "maxlat": 45.7244766, "maxlon": 4.8168682}, "geometry": [{"lat": 45.7242354, "lon": 4.81613}, {"lat": 45.7241657, "lon": 4.8161341}, {"lat": 45.7241669, "lon": 4.8161809}, {"lat": 45.7241564, "lon": 4.8161991}, {"lat": 45.7241375, "lon": 4.8162013}, {"lat": 45.7241387, "lon": 4.8162258}, {"lat": 45.7241293, "lon": 4.8162386}, {"lat": 45.724094, "lon": 4.816241}, {"lat": 45.7241063, "lon": 4.8166736}, {"lat": 45.7241089, "lon": 4.8167666}, {"lat": 45.7241433, "lon": 4.8167645}, {"lat": 45.7241555, "lon": 4.8167811}, {"lat": 45.7241555, "lon": 4.8168044}, {"lat": 45.7241737, "lon": 4.8168038}, {"lat": 45.7241858, "lon": 4.8168203}, {"lat": 45.7241872, "lon": 4.8168682}, {"lat": 45.7242745, "lon": 4.8168636}, {"lat": 45.7244034, "lon": 4.8168578}, {"lat": 45.7244027, "lon": 4.8168058}, {"lat": 45.7244151, "lon": 4.8167885}, {"lat": 45.7244305, "lon": 4.8167871}, {"lat": 45.7244297, "lon": 4.8167664}, {"lat": 45.7244431, "lon": 4.8167489}, {"lat": 45.7244766, "lon": 4.8167457}, {"lat": 45.7244627, "lon": 4.8162197}, {"lat": 45.7244325, "lon": 4.8162205}, {"lat": 45.7244159, "lon": 4.816196}, {"lat": 45.7244158, "lon": 4.8161805}, {"lat": 45.7244029, "lon": 4.8161797}, {"lat": 45.7243857, "lon": 4.8161579}, {"lat": 45.7243851, "lon": 4.8161162}, {"lat": 45.7243177, "lon": 4.8161224}, {"lat": 45.7242354, "lon": 4.81613}], "tags": {"building": "data_center", "operator": "SNCF", "source": "cadastre-dgi-fr source : Direction G\u00e9n\u00e9rale des Imp\u00f4ts - Cadastre. Mise \u00e0 jour : 2010", "telecom": "data_center"}}, {"type": "way", "id": 80144821, "bounds": {"minlat": 50.6910131, "minlon": 3.1992175, "maxlat": 50.6924085, "maxlon": 3.200138}, "geometry": [{"lat": 50.6914829, "lon": 3.1999392}, {"lat": 50.6915173, "lon": 3.1999257}, {"lat": 50.6915525, "lon": 3.1999117}, {"lat": 50.6915872, "lon": 3.1998981}, {"lat": 50.6916229, "lon": 3.1998841}, {"lat": 50.6916854, "lon": 3.1998596}, {"lat": 50.6917181, "lon": 3.2000614}, {"lat": 50.6918696, "lon": 3.1999992}, {"lat": 50.6918363, "lon": 3.1997966}, {"lat": 50.6919537, "lon": 3.1997489}, {"lat": 50.6919727, "lon": 3.199741}, {"lat": 50.6920812, "lon": 3.1996972}, {"lat": 50.6921412, "lon": 3.1996727}, {"lat": 50.6921809, "lon": 3.1996565}, {"lat": 50.6922226, "lon": 3.1996394}, {"lat": 50.692233, "lon": 3.1996355}, {"lat": 50.6923189, "lon": 3.1996005}, {"lat": 50.6924085, "lon": 3.1995641}, {"lat": 50.6923499, "lon": 3.1992175}, {"lat": 50.6921918, "lon": 3.1992802}, {"lat": 50.6921755, "lon": 3.1992863}, {"lat": 50.6921296, "lon": 3.1993043}, {"lat": 50.692142, "lon": 3.199387}, {"lat": 50.6920862, "lon": 3.1994102}, {"lat": 50.6920739, "lon": 3.1993266}, {"lat": 50.6919472, "lon": 3.1993756}, {"lat": 50.6910226, "lon": 3.1997379}, {"lat": 50.6910131, "lon": 3.200138}, {"lat": 50.6910166, "lon": 3.2001363}, {"lat": 50.6913967, "lon": 3.199976}, {"lat": 50.6913973, "lon": 3.1999756}, {"lat": 50.6914477, "lon": 3.1999532}, {"lat": 50.6914829, "lon": 3.1999392}], "tags": {"building": "industrial", "name": "OVHcloud Roubaix - RBX6", "source": "cadastre-dgi-fr source : Direction G\u00e9n\u00e9rale des Imp\u00f4ts - Cadastre. Mise \u00e0 jour : 2010", "telecom": "data_center"}}, {"type": "way", "id": 80148463, "bounds": {"minlat": 50.6923499, "minlon": 3.1990872, "maxlat": 50.6927495, "maxlon": 3.1995641}, "geometry": [{"lat": 50.6923869, "lon": 3.1992035}, {"lat": 50.6923499, "lon": 3.1992175},