{"AL":{"campus_count":1,"building_count":1,"total_footprint_m2":110,"type_counts":{"hyperscaler":0,"cloud":0,"colocation":0,"carrier":0,"enterprise":1},"top_campuses":[{"id":"campus-c8b51758fdb","name":"ISPPro.al","operator":null,"cap_mw":0.07,"fp_m2":110,"type":"enterprise","osm_url":"https://www.openstreetmap.org/way/950023771","lat":42.1213574,"lon":19.5612444}],"top_operators":[]},"AM":{"campus_count":2,"building_count":2,"total_footprint_m2":969,"type_counts":{"hyperscaler":0,"cloud":0,"colocation":0,"carrier":0,"enterprise":2},"top_campuses":[{"id":"campus-c0af6f3bbe2","name":"Ovio","operator":"GNC-Alfa","cap_mw":0.58,"fp_m2":969,"type":"enterprise","osm_url":"https://www.openstreetmap.org/way/1470640263","lat":40.2696468,"lon":44.6148451},{"id":"campus-c95f59205c6","name":"REG.AM","operator":"GlobalAr LLC","cap_mw":0,"fp_m2":0,"type":"enterprise","osm_url":"https://www.openstreetmap.org/node/7427576130","lat":40.1756486,"lon":44.5171564}],"top_operators":[{"name":"GNC-Alfa","count":1,"cap_mw":0.58,"type":"enterprise"},{"name":"GlobalAr LLC","count":1,"cap_mw":0.0,"type":"enterprise"}]},"AT":{"campus_count":15,"building_count":15,"total_footprint_m2":51863,"type_counts":{"hyperscaler":1,"cloud":0,"colocation":1,"carrier":3,"enterprise":10},"top_campuses":[{"id":"campus-c75e439bfbe","name":"Digital Realty VIE1 & VIE2","operator":"Digital Realty","cap_mw":16.56,"fp_m2":27597,"type":"colocation","osm_url":"https://www.openstreetmap.org/way/31990236","lat":48.2687257,"lon":16.4098875},{"id":"campus-c274f61c5c7","name":"Telekom-Tower","operator":"A1 / Telekom Austria","cap_mw":3.9,"fp_m2":866,"type":"carrier","osm_url":"https://www.openstreetmap.org/way/74662577","lat":47.066303,"lon":15.4304446},{"id":"campus-c4650349611","name":"B","operator":null,"cap_mw":2.46,"fp_m2":4107,"type":"enterprise","osm_url":"https://www.openstreetmap.org/way/714122239","lat":48.1593614,"lon":16.342207},{"id":"campus-ce0cd8f8a9d","name":"A","operator":null,"cap_mw":2.46,"fp_m2":4101,"type":"enterprise","osm_url":"https://www.openstreetmap.org/way/714122240","lat":48.1599209,"lon":16.3416157},{"id":"campus-cf9012e48fb","name":"C","operator":null,"cap_mw":2.37,"fp_m2":3943,"type":"enterprise","osm_url":"https://www.openstreetmap.org/way/1251362833","lat":48.1585209,"lon":16.3415573},{"id":"campus-c2b06072457","name":"Rechenzentrum Ostermiething","operator":"Stack IT","cap_mw":2.09,"fp_m2":3485,"type":"enterprise","osm_url":"https://www.openstreetmap.org/way/708069523","lat":48.0322996,"lon":12.8371296},{"id":"campus-c956bd8acff","name":"Microsoft","operator":"Microsoft","cap_mw":1.98,"fp_m2":3300,"type":"hyperscaler","osm_url":"https://www.openstreetmap.org/way/1289342848","lat":48.1405279,"lon":16.4617308},{"id":"campus-cd27284b9fc","name":"T-Mobile Rechenzentrum Graz","operator":"T-Mobile / Magenta","cap_mw":1.24,"fp_m2":2069,"type":"carrier","osm_url":"https://www.openstreetmap.org/way/1100732128","lat":47.0405353,"lon":15.4248835}],"top_operators":[{"name":"Digital Realty","count":1,"cap_mw":16.56,"type":"colocation"},{"name":"A1 / Telekom Austria","count":1,"cap_mw":3.9,"type":"carrier"},{"name":"Stack IT","count":1,"cap_mw":2.09,"type":"enterprise"},{"name":"Microsoft","count":1,"cap_mw":1.98,"type":"hyperscaler"},{"name":"T-Mobile / Magenta","count":1,"cap_mw":1.24,"type":"carrier"},{"name":"Telia Carrier Austria GmbH","count":1,"cap_mw":0.42,"type":"carrier"},{"name":"LINZ STROM GAS W\u00c4RME GmbH","count":1,"cap_mw":0.25,"type":"enterprise"}]},"AZ":{"campus_count":4,"building_count":4,"total_footprint_m2":4188,"type_counts":{"hyperscaler":0,"cloud":0,"colocation":0,"carrier":0,"enterprise":4},"top_campuses":[{"id":"campus-c03dbbb0c9b","name":"Zone 41","operator":null,"cap_mw":1.3,"fp_m2":2172,"type":"enterprise","osm_url":"https://www.openstreetmap.org/way/1330111640","lat":40.3770673,"lon":49.8866416},{"id":"campus-c08e5e469ae","name":"Pasha Technology Datacenter","operator":"Pasha Technology","cap_mw":1.18,"fp_m2":1970,"type":"enterprise","osm_url":"https://www.openstreetmap.org/way/163948431","lat":40.4095857,"lon":49.8335594},{"id":"campus-c7bd472a9db","name":"\u0130T kursu","operator":null,"cap_mw":0.03,"fp_m2":46,"type":"enterprise","osm_url":"https://www.openstreetmap.org/way/835661484","lat":39.8252746,"lon":46.7672518},{"id":"campus-c803c0e2fd7","name":"\u0130nformasiya m\u0259rk\u0259zi","operator":null,"cap_mw":0,"fp_m2":0,"type":"enterprise","osm_url":"https://www.openstreetmap.org/node/12087705567","lat":39.8156376,"lon":46.751427}],"top_operators":[{"name":"Pasha Technology","count":1,"cap_mw":1.18,"type":"enterprise"}]},"BE":{"campus_count":35,"building_count":40,"total_footprint_m2":200251,"type_counts":{"hyperscaler":2,"cloud":0,"colocation":9,"carrier":0,"enterprise":24},"top_campuses":[{"id":"campus-c4bfc6b17fc","name":"Google Data Center","operator":"Google","cap_mw":75.71,"fp_m2":126191,"type":"hyperscaler","osm_url":null,"lat":50.4653154,"lon":3.8642658},{"id":"campus-ce216aa4ec0","name":"Datacenter Burcht","operator":"Datacenter United / DCstar nv","cap_mw":8.73,"fp_m2":14548,"type":"enterprise","osm_url":"https://www.openstreetmap.org/way/389875923","lat":51.2111824,"lon":4.3469289},{"id":"campus-c30fd4e3ced","name":"Digital Realty Brussels BRU1","operator":"Digital Realty","cap_mw":5.01,"fp_m2":8359,"type":"colocation","osm_url":"https://www.openstreetmap.org/way/29448766","lat":50.8708648,"lon":4.4761945},{"id":"campus-c448ddaa3e6","name":"COLT","operator":"Colt","cap_mw":3.88,"fp_m2":6468,"type":"colocation","osm_url":"https://www.openstreetmap.org/way/30450893","lat":50.8719658,"lon":4.5044433},{"id":"campus-c223d366aa0","name":"Alphacloud Datacenter","operator":"Infrabel NV","cap_mw":3.86,"fp_m2":6432,"type":"enterprise","osm_url":"https://www.openstreetmap.org/way/85508743","lat":51.0181261,"lon":4.496914},{"id":"campus-c166a1836e3","name":"DC Hasselt 2","operator":"Datacenter United","cap_mw":3.04,"fp_m2":5063,"type":"enterprise","osm_url":"https://www.openstreetmap.org/way/822844088","lat":50.9381371,"lon":5.3634862},{"id":"campus-c3c64470043","name":"Data Center \u2014 BE","operator":null,"cap_mw":2.63,"fp_m2":4380,"type":"enterprise","osm_url":"https://www.openstreetmap.org/way/1319827133","lat":50.8736577,"lon":4.503035},{"id":"campus-cbca167fb58","name":"DC Machelen","operator":"Datacenter United","cap_mw":2.32,"fp_m2":3872,"type":"enterprise","osm_url":"https://www.openstreetmap.org/way/35130174","lat":50.9115083,"lon":4.4230012}],"top_operators":[{"name":"Google","count":1,"cap_mw":75.71,"type":"hyperscaler"},{"name":"Datacenter United / DCstar nv","count":1,"cap_mw":8.73,"type":"enterprise"},{"name":"Datacenter United","count":10,"cap_mw":7.76,"type":"enterprise"},{"name":"Digital Realty","count":2,"cap_mw":5.01,"type":"colocation"},{"name":"Colt","count":2,"cap_mw":3.88,"type":"colocation"},{"name":"Infrabel NV","count":1,"cap_mw":3.86,"type":"enterprise"},{"name":"LCL Belgium","count":2,"cap_mw":1.87,"type":"colocation"}]},"BG":{"campus_count":6,"building_count":6,"total_footprint_m2":2112,"type_counts":{"hyperscaler":0,"cloud":0,"colocation":2,"carrier":0,"enterprise":4},"top_campuses":[{"id":"campus-c90a4bc5013","name":"Discover","operator":null,"cap_mw":0.81,"fp_m2":1342,"type":"enterprise","osm_url":"https://www.openstreetmap.org/way/1123181652","lat":42.6682106,"lon":23.3756357},{"id":"campus-c00a0a13ba3","name":"SDC - \u0421\u043e\u0444\u0438\u044f","operator":"Neterra","cap_mw":0.32,"fp_m2":354,"type":"enterprise","osm_url":"https://www.openstreetmap.org/way/436617258","lat":42.6563193,"lon":23.3692656},{"id":"campus-cb4d36345f0","name":"Evolink","operator":"Evolink","cap_mw":0.25,"fp_m2":415,"type":"enterprise","osm_url":"https://www.openstreetmap.org/way/174906464","lat":42.6772924,"lon":23.2599739},{"id":"campus-c119a8c1b3e","name":"Crypt Logic","operator":"Crypt Logic LTD","cap_mw":0,"fp_m2":0,"type":"enterprise","osm_url":"https://www.openstreetmap.org/node/6633118901","lat":42.6942421,"lon":23.3168259},{"id":"campus-c31108820c3","name":"Equinix SO1","operator":"Equinix","cap_mw":0,"fp_m2":0,"type":"colocation","osm_url":"https://www.openstreetmap.org/node/6901177202","lat":42.6685202,"lon":23.3954005},{"id":"campus-c3470085f0e","name":"\u0422\u0435\u043b\u0435\u043f\u043e\u0438\u043d\u0442 \u0421\u043e\u0444\u0438\u044f \u0418\u0437\u0442\u043e\u043a","operator":"Digital Realty","cap_mw":0,"fp_m2":0,"type":"colocation","osm_url":"https://www.openstreetmap.org/node/13734763230","lat":42.672898,"lon":23.3836527}],"top_operators":[{"name":"Neterra","count":1,"cap_mw":0.32,"type":"enterprise"},{"name":"Evolink","count":1,"cap_mw":0.25,"type":"enterprise"},{"name":"Crypt Logic LTD","count":1,"cap_mw":0.0,"type":"enterprise"},{"name":"Equinix","count":1,"cap_mw":0.0,"type":"colocation"},{"name":"Digital Realty","count":1,"cap_mw":0.0,"type":"colocation"}]},"BY":{"campus_count":3,"building_count":3,"total_footprint_m2":10438,"type_counts":{"hyperscaler":0,"cloud":0,"colocation":0,"carrier":0,"enterprise":3},"top_campuses":[{"id":"campus-c248f1f5c93","name":"\u0414\u0430\u0442\u0430-\u0446\u044d\u043d\u0442\u0440 \u04101","operator":"\u0422\u0410\u0410 \u00ab\u04101 I\u041a\u0422 \u0441\u044d\u0440\u0432i\u0441\u044b\u00bb","cap_mw":3.77,"fp_m2":6288,"type":"enterprise","osm_url":"https://www.openstreetmap.org/way/464277377","lat":53.9165691,"lon":27.7364714},{"id":"campus-c892a0d9568","name":"Data Center \u2014 BY","operator":null,"cap_mw":0.91,"fp_m2":1522,"type":"enterprise","osm_url":"https://www.openstreetmap.org/way/29129405","lat":53.683447,"lon":23.8822104},{"id":"campus-cecbec33c02","name":"\u0420\u0426\u0410\u0414 beCloud","operator":"\u0422\u0410\u0410 \u0411\u0435\u043b\u0430\u0440\u0443\u0441\u043a\u0456\u044f \u0432\u043e\u0431\u043b\u0430\u0447\u043d\u044b\u044f \u0442\u044d\u0445\u043d\u0430\u043b\u043e\u0433\u0456\u0456","cap_mw":0.79,"fp_m2":2628,"type":"enterprise","osm_url":"https://www.openstreetmap.org/way/698024175","lat":53.962092,"lon":27.7842719}],"top_operators":[{"name":"\u0422\u0410\u0410 \u00ab\u04101 I\u041a\u0422 \u0441\u044d\u0440\u0432i\u0441\u044b\u00bb","count":1,"cap_mw":3.77,"type":"enterprise"},{"name":"\u0422\u0410\u0410 \u0411\u0435\u043b\u0430\u0440\u0443\u0441\u043a\u0456\u044f \u0432\u043e\u0431\u043b\u0430\u0447\u043d\u044b\u044f \u0442\u044d\u0445\u043d\u0430\u043b\u043e\u0433\u0456\u0456","count":1,"cap_mw":0.79,"type":"enterprise"}]},"CH":{"campus_count":29,"building_count":33,"total_footprint_m2":82112,"type_counts":{"hyperscaler":0,"cloud":0,"colocation":8,"carrier":3,"enterprise":18},"top_campuses":[{"id":"campus-c259c644bf4","name":"GLB2","operator":"Digital Realty","cap_mw":13.56,"fp_m2":20188,"type":"colocation","osm_url":null,"lat":47.4332957,"lon":8.5575576},{"id":"campus-cee25b89053","name":"STACK Infrastructre - ZUR01A","operator":"STACK Infrastructre","cap_mw":5.72,"fp_m2":9537,"type":"enterprise","osm_url":"https://www.openstreetmap.org/way/933269953","lat":47.6011933,"lon":8.5413801},{"id":"campus-c65c8e9df9b","name":"Equinix ZRH5","operator":"Equinix, Inc.","cap_mw":3.59,"fp_m2":5985,"type":"colocation","osm_url":null,"lat":47.4057441,"lon":8.4610358},{"id":"campus-c6fdbb92085","name":"Green Metro-Campus Z\u00fcrich Datacenter M","operator":"Green Datacenter AG","cap_mw":2.99,"fp_m2":4980,"type":"carrier","osm_url":"https://www.openstreetmap.org/way/1124769036","lat":47.4811514,"lon":8.4622571},{"id":"campus-c169a533f0f","name":"Data Center \u2014 CH","operator":null,"cap_mw":2.98,"fp_m2":4973,"type":"enterprise","osm_url":"https://www.openstreetmap.org/way/54054377","lat":47.3929047,"lon":8.4996786},{"id":"campus-c39d05e9dbb","name":"Data Center \u2014 CH","operator":null,"cap_mw":2.46,"fp_m2":4099,"type":"enterprise","osm_url":"https://www.openstreetmap.org/way/793496138","lat":47.5713801,"lon":8.8884106},{"id":"campus-ca047225a9d","name":"Data Center \u2014 CH","operator":null,"cap_mw":2.43,"fp_m2":4050,"type":"enterprise","osm_url":"https://www.openstreetmap.org/way/242248627","lat":47.4464084,"lon":8.2109752},{"id":"campus-c4767c973b9","name":"Data Center \u2014 CH","operator":null,"cap_mw":2.42,"fp_m2":4040,"type":"enterprise","osm_url":"https://www.openstreetmap.org/way/1382917740","lat":47.4818038,"lon":8.4621183}],"top_operators":[{"name":"Digital Realty","count":1,"cap_mw":13.56,"type":"colocation"},{"name":"STACK Infrastructre","count":1,"cap_mw":5.72,"type":"enterprise"},{"name":"NorthC","count":2,"cap_mw":4.38,"type":"colocation"},{"name":"Equinix, Inc.","count":1,"cap_mw":3.59,"type":"colocation"},{"name":"Green Datacenter AG","count":2,"cap_mw":3.47,"type":"carrier"},{"name":"NTT","count":1,"cap_mw":2.25,"type":"colocation"},{"name":"Vantage Data Centers","count":1,"cap_mw":1.75,"type":"colocation"}]},"CZ":{"campus_count":23,"building_count":23,"total_footprint_m2":30156,"type_counts":{"hyperscaler":0,"cloud":0,"colocation":0,"carrier":2,"enterprise":21},"top_campuses":[{"id":"campus-cef7f72bf99","name":"Datov\u00e9 centrum DC7","operator":"T-Mobile","cap_mw":2.99,"fp_m2":4983,"type":"carrier","osm_url":"https://www.openstreetmap.org/way/633071611","lat":50.0647392,"lon":14.528178},{"id":"campus-c64c05956ed","name":"DC Tower","operator":"\u010cesk\u00e9 Radiokomunikace, a.s.","cap_mw":2.54,"fp_m2":2115,"type":"enterprise","osm_url":"https://www.openstreetmap.org/way/22776917","lat":50.0809181,"lon":14.4518377},{"id":"campus-cf0fe553539","name":"Datov\u00e9 centrum Kokura","operator":null,"cap_mw":2.21,"fp_m2":3692,"type":"enterprise","osm_url":"https://www.openstreetmap.org/way/418593276","lat":50.1170056,"lon":14.5928971},{"id":"campus-c2169a505f2","name":"TTC TELEPORT - DC1","operator":null,"cap_mw":1.78,"fp_m2":2968,"type":"enterprise","osm_url":"https://www.openstreetmap.org/way/32338593","lat":50.0819872,"lon":14.5335897},{"id":"campus-c8c33012427","name":"DC Stod\u016flky","operator":"O2 Czech Republic a.s.","cap_mw":1.74,"fp_m2":2899,"type":"enterprise","osm_url":"https://www.openstreetmap.org/way/49548520","lat":50.0496252,"lon":14.3307494},{"id":"campus-cb931c21fe5","name":"DC Chodov","operator":"O2 Czech Republic a.s.","cap_mw":1.52,"fp_m2":1688,"type":"enterprise","osm_url":"https://www.openstreetmap.org/way/127931842","lat":50.0252274,"lon":14.5034516},{"id":"campus-cf0f8194173","name":"CE Colo","operator":"CE Colo Czech s.r.o.","cap_mw":1.45,"fp_m2":2413,"type":"enterprise","osm_url":"https://www.openstreetmap.org/way/142366497","lat":50.0601327,"lon":14.4829905},{"id":"campus-c6d777b6943","name":"Datov\u00e9 centrum Nagoja","operator":"Seznam.cz","cap_mw":1.16,"fp_m2":1292,"type":"enterprise","osm_url":"https://www.openstreetmap.org/way/1227095270","lat":50.2681282,"lon":14.8539715}],"top_operators":[{"name":"O2 Czech Republic a.s.","count":4,"cap_mw":3.88,"type":"enterprise"},{"name":"T-Mobile","count":2,"cap_mw":2.99,"type":"carrier"},{"name":"\u010cesk\u00e9 Radiokomunikace, a.s.","count":1,"cap_mw":2.54,"type":"enterprise"},{"name":"CE Colo Czech s.r.o.","count":1,"cap_mw":1.45,"type":"enterprise"},{"name":"Seznam.cz","count":1,"cap_mw":1.16,"type":"enterprise"},{"name":"Wedos","count":1,"cap_mw":0.14,"type":"enterprise"},{"name":"forpsi","count":1,"cap_mw":0.0,"type":"enterprise"}]},"DE":{"campus_count":177,"building_count":269,"total_footprint_m2":943426,"type_counts":{"hyperscaler":0,"cloud":3,"colocation":31,"carrier":7,"enterprise":136},"top_campuses":[{"id":"campus-c6aceed1e7d","name":"T-Systems Biere Rechenzentrum","operator":"Deutsche Telekom","cap_mw":54.95,"fp_m2":91577,"type":"carrier","osm_url":"https://www.openstreetmap.org/way/291142381","lat":51.9844664,"lon":11.6537937},{"id":"campus-cbcab952b90","name":"Data Center \u2014 DE","operator":null,"cap_mw":32.87,"fp_m2":54787,"type":"enterprise","osm_url":"https://www.openstreetmap.org/way/1084463415","lat":50.4783403,"lon":12.3322443},{"id":"campus-cf8720998af","name":"Digital Realty FRA9","operator":"Digital Realty","cap_mw":32.55,"fp_m2":33300,"type":"colocation","osm_url":null,"lat":50.1197544,"lon":8.7368445},{"id":"campus-cc9381de261","name":"CyrusOne FRA2","operator":"Digital Realty","cap_mw":27.96,"fp_m2":38990,"type":"colocation","osm_url":null,"lat":50.1272964,"lon":8.5836448},{"id":"campus-c7dbcda1569","name":"Rechenzentrum N\u00fcrnberg S\u00fcd","operator":"noris network","cap_mw":27.07,"fp_m2":45121,"type":"enterprise","osm_url":"https://www.openstreetmap.org/way/723105663","lat":49.4099739,"lon":11.1315985},{"id":"campus-c2859e7a8e1","name":"Equinix FR13","operator":"Equinix","cap_mw":25.64,"fp_m2":42726,"type":"colocation","osm_url":null,"lat":50.1402681,"lon":8.739743},{"id":"campus-cea1367a9e2","name":"Hetzner\u00a0\u2013 Rechenzentrumspark Falkenstein","operator":"Hetzner Online GmbH","cap_mw":25.15,"fp_m2":41913,"type":"cloud","osm_url":null,"lat":50.4779484,"lon":12.3354319},{"id":"campus-c342909adf9","name":"NTT","operator":"NTT","cap_mw":19.36,"fp_m2":32271,"type":"colocation","osm_url":null,"lat":50.1293878,"lon":8.6012793}],"top_operators":[{"name":"Digital Realty","count":6,"cap_mw":81.65,"type":"colocation"},{"name":"Equinix","count":6,"cap_mw":64.66,"type":"colocation"},{"name":"Deutsche Telekom","count":3,"cap_mw":55.66,"type":"carrier"},{"name":"Vantage Data Centers","count":3,"cap_mw":36.17,"type":"colocation"},{"name":"Hetzner Online GmbH","count":2,"cap_mw":29.32,"type":"cloud"},{"name":"noris network","count":2,"cap_mw":27.07,"type":"enterprise"},{"name":"NTT","count":2,"cap_mw":20.93,"type":"colocation"}]},"DK":{"campus_count":17,"building_count":19,"total_footprint_m2":663177,"type_counts":{"hyperscaler":5,"cloud":0,"colocation":2,"carrier":0,"enterprise":10},"top_campuses":[{"id":"campus-c5f481c0c8e","name":"Google Data Center Fredericia","operator":"Google","cap_mw":285.52,"fp_m2":475875,"type":"hyperscaler","osm_url":"https://www.openstreetmap.org/way/436766762","lat":55.5568174,"lon":9.6532198},{"id":"campus-c83de129ea8","name":"Meta Odense Data center","operator":"Meta","cap_mw":50.52,"fp_m2":84196,"type":"hyperscaler","osm_url":null,"lat":55.3680612,"lon":10.4828844},{"id":"campus-ca91e269315","name":"Apple","operator":"Apple","cap_mw":17.02,"fp_m2":28362,"type":"hyperscaler","osm_url":"https://www.openstreetmap.org/way/481615983","lat":56.4831353,"lon":9.5740049},{"id":"campus-c721a90acd6","name":"CPH07","operator":"Microsoft","cap_mw":12.27,"fp_m2":20449,"type":"hyperscaler","osm_url":"https://www.openstreetmap.org/way/1355695031","lat":55.6434169,"lon":12.2590999},{"id":"campus-c613201aeb3","name":"Data Center \u2014 DK","operator":null,"cap_mw":7.75,"fp_m2":12924,"type":"enterprise","osm_url":"https://www.openstreetmap.org/way/699063632","lat":55.5580025,"lon":9.6557059},{"id":"campus-cdeae8fb7b4","name":"Digital Realty Copenhagen CPH1","operator":"Digital Realty","cap_mw":6.93,"fp_m2":11551,"type":"colocation","osm_url":null,"lat":55.7278855,"lon":12.376835},{"id":"campus-cc782ea5546","name":"CPH01","operator":"Microsoft","cap_mw":6.54,"fp_m2":10891,"type":"hyperscaler","osm_url":"https://www.openstreetmap.org/way/1216992892","lat":55.58091,"lon":12.099672},{"id":"campus-c6de5b88dce","name":"Interxion CPH03","operator":"Interxion","cap_mw":2.76,"fp_m2":4598,"type":"colocation","osm_url":"https://www.openstreetmap.org/way/941798564","lat":55.7267344,"lon":12.3798772}],"top_operators":[{"name":"Google","count":1,"cap_mw":285.52,"type":"hyperscaler"},{"name":"Meta","count":1,"cap_mw":50.52,"type":"hyperscaler"},{"name":"Microsoft","count":2,"cap_mw":18.8,"type":"hyperscaler"},{"name":"Apple","count":1,"cap_mw":17.02,"type":"hyperscaler"},{"name":"Digital Realty","count":1,"cap_mw":6.93,"type":"colocation"},{"name":"Interxion","count":1,"cap_mw":2.76,"type":"colocation"},{"name":"GlobalConnect","count":1,"cap_mw":2.46,"type":"enterprise"}]},"ES":{"campus_count":30,"building_count":32,"total_footprint_m2":422224,"type_counts":{"hyperscaler":2,"cloud":0,"colocation":2,"carrier":1,"enterprise":25},"top_campuses":[{"id":"campus-cfd7cff6289","name":"Amazon Data Services Spain S.L.U.","operator":"Amazon Web Services","cap_mw":94.13,"fp_m2":156884,"type":"hyperscaler","osm_url":"https://www.openstreetmap.org/way/1085338755","lat":42.1028692,"lon":-0.4529095},{"id":"campus-cfc500f0c8b","name":"Data Center \u2014 ES","operator":null,"cap_mw":69.61,"fp_m2":116010,"type":"enterprise","osm_url":"https://www.openstreetmap.org/way/1038096236","lat":41.7940345,"lon":-0.8454983},{"id":"campus-cc77885eea0","name":"Data Center \u2014 ES","operator":null,"cap_mw":35.52,"fp_m2":59206,"type":"enterprise","osm_url":"https://www.openstreetmap.org/way/1194718845","lat":41.4843682,"lon":2.1052641},{"id":"campus-c37a9925bdf","name":"Data Center Bilbao Arasur","operator":"Merlin Properties","cap_mw":20.63,"fp_m2":22920,"type":"enterprise","osm_url":null,"lat":42.6985519,"lon":-2.9088918},{"id":"campus-c6c0d08a307","name":"Equinix MD6","operator":"Equinix","cap_mw":12.61,"fp_m2":21016,"type":"colocation","osm_url":"https://www.openstreetmap.org/way/1226425870","lat":40.5343118,"lon":-3.6624493},{"id":"campus-ce373e3b87e","name":"Microsoft MAD01","operator":"Microsoft","cap_mw":6.12,"fp_m2":10197,"type":"hyperscaler","osm_url":"https://www.openstreetmap.org/way/1093408399","lat":40.593415,"lon":-3.5498476},{"id":"campus-c12ab8139b8","name":"Centre de Processament de Dades IBM","operator":"IBM","cap_mw":3.88,"fp_m2":6472,"type":"enterprise","osm_url":"https://www.openstreetmap.org/way/368613614","lat":41.4899329,"lon":2.1082046},{"id":"campus-c0c1398694a","name":"Centro de Procesamiento de Datos Norte","operator":"Banco Santander","cap_mw":3.66,"fp_m2":12187,"type":"enterprise","osm_url":null,"lat":43.3915518,"lon":-3.7535285}],"top_operators":[{"name":"Amazon Web Services","count":1,"cap_mw":94.13,"type":"hyperscaler"},{"name":"Merlin Properties","count":1,"cap_mw":20.63,"type":"enterprise"},{"name":"Equinix","count":1,"cap_mw":12.61,"type":"colocation"},{"name":"Microsoft","count":1,"cap_mw":6.12,"type":"hyperscaler"},{"name":"IBM","count":1,"cap_mw":3.88,"type":"enterprise"},{"name":"Banco Santander","count":1,"cap_mw":3.66,"type":"enterprise"},{"name":"KIO Networks Espa\u00f1a","count":2,"cap_mw":2.62,"type":"enterprise"}]},"FI":{"campus_count":18,"building_count":27,"total_footprint_m2":140664,"type_counts":{"hyperscaler":1,"cloud":1,"colocation":5,"carrier":1,"enterprise":10},"top_campuses":[{"id":"campus-c2f028adf1d","name":"Google","operator":"Google","cap_mw":41.29,"fp_m2":68824,"type":"hyperscaler","osm_url":null,"lat":60.5372923,"lon":27.116139},{"id":"campus-cbbf09d1b53","name":"Hetzner data center - HEL1","operator":"Hetzner Finland Oy","cap_mw":17.9,"fp_m2":29833,"type":"cloud","osm_url":null,"lat":60.3424392,"lon":25.0307229},{"id":"campus-c21d0fbabe2","name":"Equinix Data Center HE6","operator":"Equinix","cap_mw":6.81,"fp_m2":11352,"type":"colocation","osm_url":null,"lat":60.2034987,"lon":24.7770587},{"id":"campus-ce843713a4e","name":"Verne Global HELSINKI","operator":"Verne Global","cap_mw":6.59,"fp_m2":10980,"type":"enterprise","osm_url":"https://www.openstreetmap.org/way/26933574","lat":60.3034345,"lon":25.101129},{"id":"campus-cc80bab8e28","name":"Telia HDC","operator":"Telia Finland Oyj","cap_mw":4.79,"fp_m2":7990,"type":"carrier","osm_url":"https://www.openstreetmap.org/way/640329703","lat":60.2159875,"lon":24.8774641},{"id":"campus-c45079a4fc4","name":"Global DC OY","operator":"Yandex","cap_mw":2.45,"fp_m2":4082,"type":"enterprise","osm_url":"https://www.openstreetmap.org/way/846760920","lat":60.6289069,"lon":25.2635866},{"id":"campus-c87e29e20c3","name":"Global DC OY","operator":"Global DC","cap_mw":2.45,"fp_m2":4081,"type":"colocation","osm_url":"https://www.openstreetmap.org/way/1246864464","lat":60.6289068,"lon":25.2625248},{"id":"campus-cdd990c5035","name":"Equinix Data Center HE5","operator":"Equinix","cap_mw":1.75,"fp_m2":2908,"type":"colocation","osm_url":"https://www.openstreetmap.org/way/13780142","lat":60.2213115,"lon":24.9856966}],"top_operators":[{"name":"Google","count":1,"cap_mw":41.29,"type":"hyperscaler"},{"name":"Hetzner Finland Oy","count":1,"cap_mw":17.9,"type":"cloud"},{"name":"Equinix","count":4,"cap_mw":8.56,"type":"colocation"},{"name":"Verne Global","count":1,"cap_mw":6.59,"type":"enterprise"},{"name":"Telia Finland Oyj","count":1,"cap_mw":4.79,"type":"carrier"},{"name":"Yandex","count":1,"cap_mw":2.45,"type":"enterprise"},{"name":"Global DC","count":1,"cap_mw":2.45,"type":"colocation"}]},"FR":{"campus_count":288,"building_count":359,"total_footprint_m2":1201111,"type_counts":{"hyperscaler":1,"cloud":12,"colocation":28,"carrier":85,"enterprise":162},"top_campuses":[{"id":"campus-c726486f789","name":"OVHcloud Gravelines","operator":"OVH","cap_mw":66.52,"fp_m2":110867,"type":"cloud","osm_url":null,"lat":51.0170169,"lon":2.1556241},{"id":"campus-c83e8abfa13","name":"Data Center \u2014 FR","operator":null,"cap_mw":62.61,"fp_m2":104347,"type":"enterprise","osm_url":"https://www.openstreetmap.org/way/952744491","lat":49.2640468,"lon":1.1851732},{"id":"campus-cd61b489c00","name":"data4","operator":"data4","cap_mw":40.57,"fp_m2":67618,"type":"enterprise","osm_url":null,"lat":48.6499003,"lon":2.2261645},{"id":"campus-c7dd0b9d928","name":"Datacenter Banque de France","operator":"Banque de France","cap_mw":26.8,"fp_m2":44662,"type":"enterprise","osm_url":"https://www.openstreetmap.org/way/1320095589","lat":48.8386013,"lon":2.7888808},{"id":"campus-ce6142be13b","name":"OPCORE DC6-6","operator":"OPCORE","cap_mw":26.08,"fp_m2":43472,"type":"carrier","osm_url":null,"lat":49.0285626,"lon":2.1243493},{"id":"campus-c0259af9068","name":"Site technique SFR","operator":"SFR","cap_mw":21.69,"fp_m2":36158,"type":"carrier","osm_url":null,"lat":48.766773,"lon":2.0023348},{"id":"campus-ca31b429553","name":"Telehouse 3","operator":"Telehouse","cap_mw":20.89,"fp_m2":34825,"type":"colocation","osm_url":"https://www.openstreetmap.org/way/700526670","lat":48.7262833,"lon":2.0786737},{"id":"campus-c83f891d627","name":"Equinix PA2","operator":"Equinix","cap_mw":20.32,"fp_m2":30203,"type":"colocation","osm_url":null,"lat":48.9274142,"lon":2.3499832}],"top_operators":[{"name":"OVH","count":8,"cap_mw":73.8,"type":"cloud"},{"name":"SFR","count":14,"cap_mw":67.94,"type":"carrier"},{"name":"Equinix","count":6,"cap_mw":61.47,"type":"colocation"},{"name":"data4","count":2,"cap_mw":42.14,"type":"enterprise"},{"name":"OPCORE","count":5,"cap_mw":42.08,"type":"carrier"},{"name":"Digital Realty","count":5,"cap_mw":33.08,"type":"colocation"},{"name":"Banque de France","count":2,"cap_mw":29.32,"type":"enterprise"}]},"GB":{"campus_count":195,"building_count":245,"total_footprint_m2":1473044,"type_counts":{"hyperscaler":6,"cloud":2,"colocation":51,"carrier":25,"enterprise":111},"top_campuses":[{"id":"campus-c7b86a04ad9","name":"Microsoft Newport data centre","operator":"Microsoft","cap_mw":99.44,"fp_m2":165731,"type":"hyperscaler","osm_url":"https://www.openstreetmap.org/way/1213266502","lat":51.5512501,"lon":-3.0402656},{"id":"campus-caa69d7bc5f","name":"Virtus London 3","operator":"Equinix","cap_mw":73.21,"fp_m2":122026,"type":"colocation","osm_url":null,"lat":51.5223236,"lon":-0.628663},{"id":"campus-cbb02200157","name":"Google Datacentre Waltham Cross","operator":"Google","cap_mw":72.0,"fp_m2":120000,"type":"hyperscaler","osm_url":"https://www.openstreetmap.org/way/795170874","lat":51.696117,"lon":-0.0483297},{"id":"campus-c40b9e46f8e","name":"Telehouse North Two","operator":"Telehouse","cap_mw":27.42,"fp_m2":15215,"type":"colocation","osm_url":null,"lat":51.5107833,"lon":-0.0019286},{"id":"campus-c319e7c7766","name":"Global Switch London East","operator":"Global Switch","cap_mw":27.29,"fp_m2":13722,"type":"colocation","osm_url":null,"lat":51.5109367,"lon":-0.0044621},{"id":"campus-c1938c2cbec","name":"Virtus London6","operator":"Virtus","cap_mw":24.05,"fp_m2":40076,"type":"enterprise","osm_url":null,"lat":51.5101562,"lon":-0.4553583},{"id":"campus-c6cdd628af8","name":"Yondr","operator":"Yondr","cap_mw":20.77,"fp_m2":34624,"type":"enterprise","osm_url":null,"lat":51.5130254,"lon":-0.5783402},{"id":"campus-cc2b6e51993","name":"Imperium 315","operator":"NYSE Euronext","cap_mw":17.63,"fp_m2":29390,"type":"enterprise","osm_url":"https://www.openstreetmap.org/way/460956016","lat":51.5862358,"lon":0.4847689}],"top_operators":[{"name":"Microsoft","count":2,"cap_mw":99.44,"type":"hyperscaler"},{"name":"Equinix","count":6,"cap_mw":85.99,"type":"colocation"},{"name":"Google","count":1,"cap_mw":72.0,"type":"hyperscaler"},{"name":"Digital Realty","count":8,"cap_mw":41.2,"type":"colocation"},{"name":"Ark Data Centres","count":4,"cap_mw":28.7,"type":"colocation"},{"name":"Telehouse","count":1,"cap_mw":27.42,"type":"colocation"},{"name":"Global Switch","count":1,"cap_mw":27.29,"type":"colocation"}]},"GE":{"campus_count":3,"building_count":3,"total_footprint_m2":3707,"type_counts":{"hyperscaler":0,"cloud":0,"colocation":0,"carrier":0,"enterprise":3},"top_campuses":[{"id":"campus-cb629b25b0a","name":"Bitfury","operator":null,"cap_mw":1.9,"fp_m2":3166,"type":"enterprise","osm_url":"https://www.openstreetmap.org/way/554896775","lat":41.8081823,"lon":44.8626437},{"id":"campus-ce6cf44f045","name":"Newtelco Datacenter","operator":null,"cap_mw":0.49,"fp_m2":542,"type":"enterprise","osm_url":"https://www.openstreetmap.org/way/880484502","lat":41.7210718,"lon":44.7126901},{"id":"campus-c61426a21f8","name":"Internet Exchange Point","operator":null,"cap_mw":0,"fp_m2":0,"type":"enterprise","osm_url":"https://www.openstreetmap.org/node/11423466904","lat":42.1880991,"lon":42.7254921}],"top_operators":[]},"GR":{"campus_count":6,"building_count":8,"total_footprint_m2":7040,"type_counts":{"hyperscaler":0,"cloud":0,"colocation":0,"carrier":1,"enterprise":5},"top_campuses":[{"id":"campus-cbdbf882e12","name":"Athens 3","operator":null,"cap_mw":2.94,"fp_m2":4905,"type":"enterprise","osm_url":null,"lat":37.8713306,"lon":23.8702837},{"id":"campus-c0bc03e95a5","name":"Med Nautilus","operator":"Ti Sparkle","cap_mw":0.63,"fp_m2":1047,"type":"enterprise","osm_url":"https://www.openstreetmap.org/way/718195570","lat":38.0726099,"lon":23.7736285},{"id":"campus-cd2808f1f8c","name":"COSMOTE","operator":"COSMOTE","cap_mw":0.27,"fp_m2":452,"type":"carrier","osm_url":"https://www.openstreetmap.org/way/352365291","lat":39.6197809,"lon":19.9190694},{"id":"campus-c173b779dab","name":"\u039a\u03ad\u03bd\u03c4\u03c1\u03bf \u0394\u03b5\u03b4\u03bf\u03bc\u03ad\u03bd\u03c9\u03bd \u039b\u03bf\u03cd\u03c1\u03bf\u03c2","operator":"GRNET / \u0395\u0394\u03a5\u03a4\u0395","cap_mw":0.25,"fp_m2":416,"type":"enterprise","osm_url":"https://www.openstreetmap.org/way/1349035496","lat":39.2504893,"lon":20.8653584},{"id":"campus-c72e151a781","name":"Data Center \u2014 GR","operator":null,"cap_mw":0.13,"fp_m2":220,"type":"enterprise","osm_url":"https://www.openstreetmap.org/way/1222992669","lat":39.5498478,"lon":19.880977},{"id":"campus-c42f226fd00","name":"Nova Shop","operator":null,"cap_mw":0,"fp_m2":0,"type":"enterprise","osm_url":"https://www.openstreetmap.org/node/8542011751","lat":36.4167855,"lon":28.1547827}],"top_operators":[{"name":"Ti Sparkle","count":1,"cap_mw":0.63,"type":"enterprise"},{"name":"COSMOTE","count":1,"cap_mw":0.27,"type":"carrier"},{"name":"GRNET / \u0395\u0394\u03a5\u03a4\u0395","count":1,"cap_mw":0.25,"type":"enterprise"}]},"HR":{"campus_count":11,"building_count":11,"total_footprint_m2":45586,"type_counts":{"hyperscaler":0,"cloud":0,"colocation":0,"carrier":1,"enterprise":10},"top_campuses":[{"id":"campus-cc264e90cb4","name":"Satelitsko i multimedijsko sredi\u0161te Deanovec","operator":"Oda\u0161ilja\u010di i veze d.o.o.","cap_mw":26.77,"fp_m2":44619,"type":"enterprise","osm_url":"https://www.openstreetmap.org/way/936382486","lat":45.7001541,"lon":16.4747472},{"id":"campus-ca35eb886b0","name":"Data Center \u2014 HR","operator":null,"cap_mw":0.36,"fp_m2":601,"type":"enterprise","osm_url":"https://www.openstreetmap.org/way/137405897","lat":45.8179842,"lon":15.8875538},{"id":"campus-c5477e81cb0","name":"A1 data centar","operator":"A1 Hrvatska d.o.o.","cap_mw":0.22,"fp_m2":366,"type":"carrier","osm_url":"https://www.openstreetmap.org/way/983298525","lat":45.764723,"lon":15.9815696},{"id":"campus-c2b5951e085","name":"Data Link","operator":null,"cap_mw":0,"fp_m2":0,"type":"enterprise","osm_url":"https://www.openstreetmap.org/node/11522161405","lat":45.903392,"lon":16.8461354},{"id":"campus-c4fe5abd877","name":"Podatkovni centar Hrvatskog telekoma","operator":null,"cap_mw":0,"fp_m2":0,"type":"enterprise","osm_url":"https://www.openstreetmap.org/node/13752762948","lat":45.797225,"lon":15.9428751},{"id":"campus-ce4616bf717","name":"Hrvatski Telekom","operator":"Hrvatski Telekom","cap_mw":0,"fp_m2":0,"type":"enterprise","osm_url":"https://www.openstreetmap.org/node/13753535952","lat":45.8111609,"lon":15.9828385},{"id":"campus-c2e45590de5","name":"Podatkovni centar HR-ZOO ZG1","operator":"Sveu\u010dili\u0161ni ra\u010dunski centar","cap_mw":0,"fp_m2":0,"type":"enterprise","osm_url":"https://www.openstreetmap.org/node/13809854904","lat":45.7922815,"lon":15.9696538},{"id":"campus-c0832a67d3d","name":"Podatkovni centar HR-ZOO ZG2","operator":"Sveu\u010dili\u0161ni ra\u010dunski centar","cap_mw":0,"fp_m2":0,"type":"enterprise","osm_url":"https://www.openstreetmap.org/node/13809854905","lat":45.8151239,"lon":16.042654}],"top_operators":[{"name":"Oda\u0161ilja\u010di i veze d.o.o.","count":1,"cap_mw":26.77,"type":"enterprise"},{"name":"A1 Hrvatska d.o.o.","count":1,"cap_mw":0.22,"type":"carrier"},{"name":"Hrvatski Telekom","count":1,"cap_mw":0.0,"type":"enterprise"},{"name":"Sveu\u010dili\u0161ni ra\u010dunski centar","count":5,"cap_mw":0.0,"type":"enterprise"}]},"HU":{"campus_count":19,"building_count":21,"total_footprint_m2":28415,"type_counts":{"hyperscaler":0,"cloud":0,"colocation":0,"carrier":0,"enterprise":19},"top_campuses":[{"id":"campus-c669336714e","name":"Magyar Telekom Cloud & DataCenter","operator":"Telekom Rendszerintegr\u00e1ci\u00f3 Zrt.","cap_mw":6.75,"fp_m2":11253,"type":"enterprise","osm_url":"https://www.openstreetmap.org/way/256121487","lat":47.4934508,"lon":19.1034848},{"id":"campus-c199779549d","name":"KBC Adatk\u00f6zpont","operator":null,"cap_mw":3.92,"fp_m2":6537,"type":"enterprise","osm_url":"https://www.openstreetmap.org/way/370602006","lat":47.4429361,"lon":18.8829903},{"id":"campus-c2c46fe5c73","name":"KBC Adatk\u00f6zpont","operator":"KBC GHB","cap_mw":3.58,"fp_m2":5965,"type":"enterprise","osm_url":"https://www.openstreetmap.org/way/439230488","lat":47.2767898,"lon":18.7405591},{"id":"campus-c2f1ac3250b","name":"Magyar Telekom","operator":"Magyar Telekom","cap_mw":1.25,"fp_m2":2077,"type":"enterprise","osm_url":"https://www.openstreetmap.org/way/103166277","lat":47.4420926,"lon":18.9727729},{"id":"campus-c612c2fd387","name":"Hauszmann adatk\u00f6zpont","operator":null,"cap_mw":1.16,"fp_m2":965,"type":"enterprise","osm_url":"https://www.openstreetmap.org/way/220458425","lat":47.466668,"lon":19.0460569},{"id":"campus-cee7375365a","name":"Bel\u00fcgyminiszt\u00e9rium Nyilv\u00e1ntart\u00e1sok Vezet\u00e9s\u00e9\u00e9rt Felel\u0151s Helyettes \u00c1llamtitk\u00e1rs\u00e1g","operator":"Bel\u00fcgyminiszt\u00e9rium","cap_mw":0.51,"fp_m2":846,"type":"enterprise","osm_url":"https://www.openstreetmap.org/way/261477906","lat":47.4782105,"lon":19.0801742},{"id":"campus-ca1c8037957","name":"MVM NET Adatk\u00f6zpont Kft.","operator":"MVM NET Adatk\u00f6zpont Kft.","cap_mw":0.26,"fp_m2":432,"type":"enterprise","osm_url":"https://www.openstreetmap.org/way/636309871","lat":47.6900113,"lon":19.1625144},{"id":"campus-c51e8d4af03","name":"Data Center \u2014 HU","operator":null,"cap_mw":0.16,"fp_m2":260,"type":"enterprise","osm_url":"https://www.openstreetmap.org/way/315242736","lat":48.0985591,"lon":20.8392269}],"top_operators":[{"name":"Telekom Rendszerintegr\u00e1ci\u00f3 Zrt.","count":1,"cap_mw":6.75,"type":"enterprise"},{"name":"KBC GHB","count":1,"cap_mw":3.58,"type":"enterprise"},{"name":"Magyar Telekom","count":3,"cap_mw":1.25,"type":"enterprise"},{"name":"Bel\u00fcgyminiszt\u00e9rium","count":1,"cap_mw":0.51,"type":"enterprise"},{"name":"MVM NET Adatk\u00f6zpont Kft.","count":1,"cap_mw":0.26,"type":"enterprise"},{"name":"ATW","count":1,"cap_mw":0.0,"type":"enterprise"},{"name":"DIGI T\u00e1vk\u00f6zl\u00e9si \u00e9s Szolg\u00e1ltat\u00f3 Kft.","count":1,"cap_mw":0.0,"type":"enterprise"}]},"IE":{"campus_count":46,"building_count":81,"total_footprint_m2":869653,"type_counts":{"hyperscaler":10,"cloud":0,"colocation":9,"carrier":3,"enterprise":24},"top_campuses":[{"id":"campus-c214cc31e8b","name":"Microsoft DUB07","operator":"Microsoft","cap_mw":116.76,"fp_m2":194592,"type":"hyperscaler","osm_url":null,"lat":53.3220666,"lon":-6.4469836},{"id":"campus-c018792d33a","name":"Meta Clonee 5 Data Center","operator":"Meta","cap_mw":89.11,"fp_m2":148525,"type":"hyperscaler","osm_url":null,"lat":53.4185558,"lon":-6.4368188},{"id":"campus-c8d348dfe66","name":"Amazon Web Services","operator":"Amazon Web Services","cap_mw":44.87,"fp_m2":74778,"type":"hyperscaler","osm_url":null,"lat":53.4050543,"lon":-6.2237404},{"id":"campus-c99f3d0dad1","name":"Amazon Web Services","operator":"Amazon Web Services","cap_mw":25.19,"fp_m2":41982,"type":"hyperscaler","osm_url":null,"lat":53.4148526,"lon":-6.3800875},{"id":"campus-c4689684fdc","name":"Amazon Web Services","operator":"Amazon Web Services","cap_mw":19.7,"fp_m2":32841,"type":"hyperscaler","osm_url":null,"lat":53.294696,"lon":-6.3677028},{"id":"campus-c7b22491e8b","name":"Amazon Web Services","operator":"Amazon Web Services","cap_mw":19.24,"fp_m2":32067,"type":"hyperscaler","osm_url":null,"lat":53.403922,"lon":-6.3638204},{"id":"campus-c377320c8a2","name":"Elfordstown Earthstation","operator":"National Space Centre Ltd","cap_mw":18.69,"fp_m2":31156,"type":"enterprise","osm_url":"https://www.openstreetmap.org/way/34291029","lat":51.953355,"lon":-8.1760491},{"id":"campus-cb75bfffc23","name":"EdgeConneX","operator":"EdgeConneX","cap_mw":16.97,"fp_m2":28279,"type":"enterprise","osm_url":null,"lat":53.3282425,"lon":-6.4560383}],"top_operators":[{"name":"Amazon Web Services","count":7,"cap_mw":136.39,"type":"hyperscaler"},{"name":"Microsoft","count":1,"cap_mw":116.76,"type":"hyperscaler"},{"name":"Meta","count":1,"cap_mw":89.11,"type":"hyperscaler"},{"name":"National Space Centre Ltd","count":1,"cap_mw":18.69,"type":"enterprise"},{"name":"Digital Realty","count":5,"cap_mw":18.08,"type":"colocation"},{"name":"EdgeConneX","count":1,"cap_mw":16.97,"type":"enterprise"},{"name":"Google","count":1,"cap_mw":13.89,"type":"hyperscaler"}]},"IS":{"campus_count":8,"building_count":25,"total_footprint_m2":65445,"type_counts":{"hyperscaler":0,"cloud":0,"colocation":0,"carrier":0,"enterprise":8},"top_campuses":[{"id":"campus-c0fa26b4ae8","name":"Verne Gagnaver","operator":"Verne Global","cap_mw":16.97,"fp_m2":28279,"type":"enterprise","osm_url":null,"lat":63.9770852,"lon":-22.5759887},{"id":"campus-c482ddec6ed","name":"M11","operator":"atNorth","cap_mw":14.41,"fp_m2":24016,"type":"enterprise","osm_url":null,"lat":63.9638597,"lon":-22.5384156},{"id":"campus-c7f6dd49d4f","name":"Bl\u00f6ndu\u00f3s","operator":"Borealis","cap_mw":4.39,"fp_m2":7318,"type":"enterprise","osm_url":"https://www.openstreetmap.org/way/1227173411","lat":65.647127,"lon":-20.2428903},{"id":"campus-cb53f39df70","name":"Data Center \u2014 IS","operator":null,"cap_mw":1.35,"fp_m2":2252,"type":"enterprise","osm_url":"https://www.openstreetmap.org/way/214499225","lat":64.0495663,"lon":-21.9935724},{"id":"campus-c58f0d22f1f","name":"Reykjav\u00edk DC","operator":"Borealis","cap_mw":0.92,"fp_m2":1527,"type":"enterprise","osm_url":"https://www.openstreetmap.org/way/746481930","lat":64.1454391,"lon":-21.7533792},{"id":"campus-cf38b8bf234","name":"Data Center \u2014 IS","operator":null,"cap_mw":0.67,"fp_m2":1108,"type":"enterprise","osm_url":"https://www.openstreetmap.org/way/802114426","lat":63.9616065,"lon":-22.5349984},{"id":"campus-cc3ed5227f2","name":"\u00dej\u00f3\u00f0braut 838","operator":null,"cap_mw":0.57,"fp_m2":946,"type":"enterprise","osm_url":"https://www.openstreetmap.org/way/35973814","lat":63.9762614,"lon":-22.5836956},{"id":"campus-cc0d7c0e8df","name":"atNorth ICE01","operator":"atNorth","cap_mw":0,"fp_m2":0,"type":"enterprise","osm_url":"https://www.openstreetmap.org/node/10062286674","lat":64.0494647,"lon":-21.9934656}],"top_operators":[{"name":"Verne Global","count":1,"cap_mw":16.97,"type":"enterprise"},{"name":"atNorth","count":2,"cap_mw":14.41,"type":"enterprise"},{"name":"Borealis","count":2,"cap_mw":5.31,"type":"enterprise"}]},"IT":{"campus_count":55,"building_count":68,"total_footprint_m2":139738,"type_counts":{"hyperscaler":1,"cloud":0,"colocation":3,"carrier":0,"enterprise":51},"top_campuses":[{"id":"campus-c4d60b47a05","name":"STACK MILL1A","operator":"STACK","cap_mw":20.66,"fp_m2":34436,"type":"enterprise","osm_url":null,"lat":45.3304059,"lon":9.2043516},{"id":"campus-c62432656a5","name":"Data4 Italia - Campus MIL01 - DC05","operator":"Data4 Italia","cap_mw":14.87,"fp_m2":24784,"type":"enterprise","osm_url":null,"lat":45.4714759,"lon":9.03793},{"id":"campus-c43c5b5f9ee","name":"Data Center \u2014 IT","operator":null,"cap_mw":11.61,"fp_m2":19354,"type":"enterprise","osm_url":"https://www.openstreetmap.org/way/1361440709","lat":45.0992493,"lon":8.8608753},{"id":"campus-c09b786f5ec","name":"Equinix ML7x","operator":"Equinix","cap_mw":4.95,"fp_m2":8243,"type":"colocation","osm_url":null,"lat":45.4761201,"lon":9.038046},{"id":"campus-c13b8ff4b9e","name":"Aruba s.p.a.","operator":"Aruba s.p.a.","cap_mw":4.61,"fp_m2":7691,"type":"enterprise","osm_url":null,"lat":41.9310575,"lon":12.6313377},{"id":"campus-c565a64a18f","name":"Data Center \u2014 IT","operator":null,"cap_mw":4.14,"fp_m2":6900,"type":"enterprise","osm_url":"https://www.openstreetmap.org/way/1387957696","lat":45.3536414,"lon":9.3098383},{"id":"campus-cc2d3f49a54","name":"Data Center \u2014 IT","operator":null,"cap_mw":3.54,"fp_m2":5898,"type":"enterprise","osm_url":"https://www.openstreetmap.org/way/1210747121","lat":45.4291438,"lon":9.3863678},{"id":"campus-c0c27b84f4a","name":"Noovle DC Rivoli","operator":"Noovle SpA","cap_mw":3.39,"fp_m2":5648,"type":"enterprise","osm_url":"https://www.openstreetmap.org/way/1419931331","lat":45.0625687,"lon":7.550836}],"top_operators":[{"name":"STACK","count":1,"cap_mw":20.66,"type":"enterprise"},{"name":"Data4 Italia","count":1,"cap_mw":14.87,"type":"enterprise"},{"name":"Aruba s.p.a.","count":3,"cap_mw":6.33,"type":"enterprise"},{"name":"Equinix","count":3,"cap_mw":5.72,"type":"colocation"},{"name":"Noovle SpA","count":1,"cap_mw":3.39,"type":"enterprise"},{"name":"Noovle S.p.A.","count":1,"cap_mw":2.98,"type":"enterprise"},{"name":"Quadrivium Digital","count":1,"cap_mw":2.37,"type":"enterprise"}]},"LU":{"campus_count":8,"building_count":10,"total_footprint_m2":53013,"type_counts":{"hyperscaler":0,"cloud":0,"colocation":4,"carrier":1,"enterprise":3},"top_campuses":[{"id":"campus-ce5f0a43ebb","name":"ICT Campus Bettembourg DC 1.3","operator":"LuxConnect","cap_mw":10.17,"fp_m2":16952,"type":"enterprise","osm_url":null,"lat":49.5052148,"lon":6.1126142},{"id":"campus-ca5ebd30f53","name":"Data Center \u2014 LU","operator":null,"cap_mw":9.03,"fp_m2":15045,"type":"enterprise","osm_url":"https://www.openstreetmap.org/way/834727625","lat":49.7874021,"lon":6.0896266},{"id":"campus-c0a4a4eabb1","name":"EBRC Resilience Centre Luxembourg South","operator":"EBRC","cap_mw":4.14,"fp_m2":6908,"type":"colocation","osm_url":"https://www.openstreetmap.org/way/166476032","lat":49.4976726,"lon":6.0521636},{"id":"campus-ca252f845ae","name":"EBRC Resilience Centre Luxembourg East","operator":"EBRC","cap_mw":3.69,"fp_m2":6156,"type":"colocation","osm_url":"https://www.openstreetmap.org/way/218247529","lat":49.6939785,"lon":6.3244932},{"id":"campus-cca1cb827cd","name":"EBRC Resilience Centre Luxembourg West","operator":"EBRC","cap_mw":2.85,"fp_m2":4754,"type":"colocation","osm_url":"https://www.openstreetmap.org/way/128851542","lat":49.6486987,"lon":5.9579295},{"id":"campus-c2f0a829e68","name":"Verizon Luxembourg","operator":"Verizon","cap_mw":1.73,"fp_m2":2880,"type":"carrier","osm_url":"https://www.openstreetmap.org/way/34959860","lat":49.5952639,"lon":6.2173694},{"id":"campus-c468e911926","name":"Visual Online","operator":null,"cap_mw":0.19,"fp_m2":318,"type":"enterprise","osm_url":"https://www.openstreetmap.org/way/103443262","lat":49.5950713,"lon":6.2233487},{"id":"campus-c9dc952c8be","name":"European Business Reliance Centre (EBRC)","operator":"EBRC","cap_mw":0,"fp_m2":0,"type":"colocation","osm_url":"https://www.openstreetmap.org/node/5866595614","lat":49.5843233,"lon":6.1135335}],"top_operators":[{"name":"EBRC","count":4,"cap_mw":10.69,"type":"colocation"},{"name":"LuxConnect","count":1,"cap_mw":10.17,"type":"enterprise"},{"name":"Verizon","count":1,"cap_mw":1.73,"type":"carrier"}]},"LV":{"campus_count":4,"building_count":5,"total_footprint_m2":0,"type_counts":{"hyperscaler":0,"cloud":0,"colocation":0,"carrier":0,"enterprise":4},"top_campuses":[{"id":"campus-c05d6a36a9e","name":"Delska","operator":"Delska","cap_mw":0,"fp_m2":0,"type":"enterprise","osm_url":null,"lat":56.8891105,"lon":24.2321689},{"id":"campus-cdef208c7bc","name":"Delska","operator":"Delska","cap_mw":0,"fp_m2":0,"type":"enterprise","osm_url":"https://www.openstreetmap.org/node/12374924582","lat":56.9578858,"lon":24.1549163},{"id":"campus-c42865aee3d","name":"Data Center \u2014 LV","operator":null,"cap_mw":0,"fp_m2":0,"type":"enterprise","osm_url":"https://www.openstreetmap.org/node/12374926942","lat":56.9483316,"lon":24.2010489},{"id":"campus-c4a9af2ab27","name":"Data Center \u2014 LV","operator":null,"cap_mw":0,"fp_m2":0,"type":"enterprise","osm_url":"https://www.openstreetmap.org/node/12374926943","lat":56.9803758,"lon":24.155045}],"top_operators":[{"name":"Delska","count":2,"cap_mw":0.0,"type":"enterprise"}]},"MD":{"campus_count":2,"building_count":2,"total_footprint_m2":0,"type_counts":{"hyperscaler":0,"cloud":0,"colocation":0,"carrier":0,"enterprise":2},"top_campuses":[{"id":"campus-c653408f196","name":"Trabia-Network","operator":null,"cap_mw":0,"fp_m2":0,"type":"enterprise","osm_url":"https://www.openstreetmap.org/node/4325876836","lat":47.0231289,"lon":28.8373166},{"id":"campus-c6403b64a20","name":"IPHOST Datacenter","operator":null,"cap_mw":0,"fp_m2":0,"type":"enterprise","osm_url":"https://www.openstreetmap.org/node/6551211354","lat":47.0079445,"lon":28.8834002}],"top_operators":[]},"MK":{"campus_count":2,"building_count":2,"total_footprint_m2":677,"type_counts":{"hyperscaler":0,"cloud":0,"colocation":0,"carrier":0,"enterprise":2},"top_campuses":[{"id":"campus-ca6829a6efc","name":":IW Connect","operator":null,"cap_mw":0.35,"fp_m2":584,"type":"enterprise","osm_url":"https://www.openstreetmap.org/way/1337209613","lat":41.0268927,"lon":21.3040451},{"id":"campus-c092a138a5d","name":"\u0424\u0418\u041d\u041a\u0418","operator":"\u0424\u0418\u041d\u041a\u0418","cap_mw":0.06,"fp_m2":92,"type":"enterprise","osm_url":"https://www.openstreetmap.org/way/913494019","lat":42.0042212,"lon":21.409346}],"top_operators":[{"name":"\u0424\u0418\u041d\u041a\u0418","count":1,"cap_mw":0.06,"type":"enterprise"}]},"NL":{"campus_count":104,"building_count":151,"total_footprint_m2":1623330,"type_counts":{"hyperscaler":4,"cloud":2,"colocation":29,"carrier":8,"enterprise":61},"top_campuses":[{"id":"campus-ce24ea2920d","name":"Microsoft Datacenter","operator":"Microsoft","cap_mw":384.13,"fp_m2":640216,"type":"hyperscaler","osm_url":null,"lat":52.7786079,"lon":5.0297807},{"id":"campus-c9f2f81f4be","name":"Nieuwbouw datacenter QTS","operator":"Quality Technology Services","cap_mw":107.38,"fp_m2":178964,"type":"enterprise","osm_url":null,"lat":53.4381542,"lon":6.8559795},{"id":"campus-c906c845b12","name":"Google Datacenter Middenmeer","operator":"Google","cap_mw":99.24,"fp_m2":165402,"type":"hyperscaler","osm_url":"https://www.openstreetmap.org/way/1138948050","lat":52.7909481,"lon":5.0295049},{"id":"campus-cce48071a8c","name":"AMS07","operator":"Microsoft","cap_mw":69.18,"fp_m2":115295,"type":"hyperscaler","osm_url":null,"lat":52.7639807,"lon":5.0375393},{"id":"campus-c1706ccc51a","name":"Google Datacenter Eemshaven","operator":"Google","cap_mw":46.3,"fp_m2":77176,"type":"hyperscaler","osm_url":null,"lat":53.4246756,"lon":6.8640818},{"id":"campus-ce5455b082b","name":"EdgeConneX AMS06","operator":"EdgeConneX","cap_mw":20.2,"fp_m2":33667,"type":"enterprise","osm_url":"https://www.openstreetmap.org/way/1460732391","lat":52.2833367,"lon":4.7420006},{"id":"campus-cc67d2cd6e0","name":"Data Center \u2014 NL","operator":null,"cap_mw":18.55,"fp_m2":30921,"type":"enterprise","osm_url":"https://www.openstreetmap.org/way/723864747","lat":52.7918708,"lon":5.0290699},{"id":"campus-ca93ae1cc17","name":"Data Center \u2014 NL","operator":null,"cap_mw":18.2,"fp_m2":30325,"type":"enterprise","osm_url":"https://www.openstreetmap.org/way/700738101","lat":52.3442588,"lon":4.8297998}],"top_operators":[{"name":"Microsoft","count":2,"cap_mw":453.31,"type":"hyperscaler"},{"name":"Google","count":2,"cap_mw":145.55,"type":"hyperscaler"},{"name":"Quality Technology Services","count":1,"cap_mw":107.38,"type":"enterprise"},{"name":"EdgeConneX","count":1,"cap_mw":20.2,"type":"enterprise"},{"name":"NorthC","count":11,"cap_mw":18.28,"type":"colocation"},{"name":"NTT Data","count":1,"cap_mw":16.81,"type":"colocation"},{"name":"Iron Mountain","count":1,"cap_mw":13.09,"type":"colocation"}]},"NO":{"campus_count":13,"building_count":16,"total_footprint_m2":43776,"type_counts":{"hyperscaler":0,"cloud":0,"colocation":3,"carrier":0,"enterprise":10},"top_campuses":[{"id":"campus-c57d9698652","name":"Green Mountain","operator":"Green Mountain","cap_mw":7.83,"fp_m2":13049,"type":"colocation","osm_url":null,"lat":60.8427381,"lon":11.2667025},{"id":"campus-cc6c6cdfc55","name":"Green Mountain Ytre Enebakk","operator":"Green Mountain","cap_mw":6.0,"fp_m2":10004,"type":"colocation","osm_url":null,"lat":59.7582236,"lon":10.993125},{"id":"campus-cb712e79183","name":"Stack Infrastructure OSLO1A","operator":"Stack Infrastructure","cap_mw":4.88,"fp_m2":4070,"type":"enterprise","osm_url":"https://www.openstreetmap.org/way/30724580","lat":59.9248593,"lon":10.8092157},{"id":"campus-c4467cc5248","name":"Bulk Data Centers Oslo Internet Exchange","operator":"Bulk Infrastructure","cap_mw":4.29,"fp_m2":7155,"type":"colocation","osm_url":"https://www.openstreetmap.org/way/80871917","lat":59.9387096,"lon":10.8355143},{"id":"campus-cb597072c5d","name":"Data Center \u2014 NO","operator":null,"cap_mw":1.9,"fp_m2":3160,"type":"enterprise","osm_url":"https://www.openstreetmap.org/way/1028687251","lat":59.632769,"lon":11.0046621},{"id":"campus-cfed915e195","name":"Data Center \u2014 NO","operator":null,"cap_mw":1.9,"fp_m2":3160,"type":"enterprise","osm_url":"https://www.openstreetmap.org/way/1164840308","lat":59.63279,"lon":11.0031503},{"id":"campus-ca1f5f77201","name":"Data Center \u2014 NO","operator":null,"cap_mw":1.9,"fp_m2":3160,"type":"enterprise","osm_url":"https://www.openstreetmap.org/way/1164840309","lat":59.6329141,"lon":11.0061639},{"id":"campus-c341c5fc18f","name":"Signal","operator":null,"cap_mw":0.0,"fp_m2":7,"type":"enterprise","osm_url":"https://www.openstreetmap.org/way/869898955","lat":65.9765668,"lon":12.2770472}],"top_operators":[{"name":"Green Mountain","count":2,"cap_mw":13.83,"type":"colocation"},{"name":"Stack Infrastructure","count":1,"cap_mw":4.88,"type":"enterprise"},{"name":"Bulk Infrastructure","count":1,"cap_mw":4.29,"type":"colocation"},{"name":"Privat","count":1,"cap_mw":0.0,"type":"enterprise"}]},"PL":{"campus_count":25,"building_count":26,"total_footprint_m2":90260,"type_counts":{"hyperscaler":0,"cloud":1,"colocation":4,"carrier":3,"enterprise":17},"top_campuses":[{"id":"campus-c6ccae77f34","name":"Atman Data Center Warsaw-1","operator":"Atman","cap_mw":16.02,"fp_m2":26699,"type":"colocation","osm_url":"https://www.openstreetmap.org/way/1156823776","lat":52.2364437,"lon":21.1166215},{"id":"campus-ce5d77839c6","name":"Equinix WA3","operator":"Equinix","cap_mw":6.06,"fp_m2":10106,"type":"colocation","osm_url":"https://www.openstreetmap.org/way/799107416","lat":52.190338,"lon":20.9228691},{"id":"campus-cd49c1772f5","name":"ATMAN","operator":"ATMAN","cap_mw":4.03,"fp_m2":6712,"type":"colocation","osm_url":"https://www.openstreetmap.org/way/1366517660","lat":52.2036406,"lon":20.8066701},{"id":"campus-c6060eb7501","name":"Warsaw Data Hub","operator":"Orange Polska S.A.","cap_mw":3.65,"fp_m2":6088,"type":"carrier","osm_url":"https://www.openstreetmap.org/way/969929224","lat":52.0743175,"lon":20.8771748},{"id":"campus-c27aef88dc8","name":"Centrum Przetwarzania Danych T\u2011Mobile Polska","operator":"T\u2011Mobile Polska","cap_mw":3.15,"fp_m2":5250,"type":"enterprise","osm_url":"https://www.openstreetmap.org/way/1442986078","lat":52.0788292,"lon":21.0060764},{"id":"campus-c681bff2b02","name":"Data Center \u2014 PL","operator":null,"cap_mw":2.54,"fp_m2":4232,"type":"enterprise","osm_url":"https://www.openstreetmap.org/way/148068768","lat":51.7894578,"lon":19.5072535},{"id":"campus-c521fb13a45","name":"Polkomtel","operator":"Polkomtel","cap_mw":2.27,"fp_m2":2519,"type":"enterprise","osm_url":"https://www.openstreetmap.org/way/93062990","lat":52.1194805,"lon":21.0157393},{"id":"campus-c2be7babfcc","name":"OVHcloud O\u017car\u00f3w (WAW-1)","operator":"OVH Sp. z o.o.","cap_mw":2.13,"fp_m2":3543,"type":"cloud","osm_url":"https://www.openstreetmap.org/way/216811192","lat":52.2079253,"lon":20.808281}],"top_operators":[{"name":"Atman","count":1,"cap_mw":16.02,"type":"colocation"},{"name":"Equinix","count":1,"cap_mw":6.06,"type":"colocation"},{"name":"ATMAN","count":1,"cap_mw":4.03,"type":"colocation"},{"name":"Orange Polska S.A.","count":1,"cap_mw":3.65,"type":"carrier"},{"name":"T\u2011Mobile Polska","count":1,"cap_mw":3.15,"type":"enterprise"},{"name":"Polcom","count":2,"cap_mw":3.06,"type":"enterprise"},{"name":"T-Mobile","count":2,"cap_mw":2.3,"type":"carrier"}]},"PT":{"campus_count":15,"building_count":16,"total_footprint_m2":46976,"type_counts":{"hyperscaler":0,"cloud":0,"colocation":1,"carrier":0,"enterprise":14},"top_campuses":[{"id":"campus-c4dc6d12aa4","name":"NOS Imopolis II","operator":"NOS","cap_mw":11.81,"fp_m2":19686,"type":"enterprise","osm_url":null,"lat":38.7256379,"lon":-9.2306656},{"id":"campus-c2efad066a3","name":"Start SIN01","operator":null,"cap_mw":10.29,"fp_m2":17155,"type":"enterprise","osm_url":"https://www.openstreetmap.org/way/1266541682","lat":37.9351787,"lon":-8.8125655},{"id":"campus-c1f16241109","name":"Data Center Portugal Telecom da Covilh\u00e3","operator":"Portugal Telecom","cap_mw":2.82,"fp_m2":3130,"type":"enterprise","osm_url":"https://www.openstreetmap.org/way/667333147","lat":40.2655037,"lon":-7.4796096},{"id":"campus-c22cd8275b4","name":"Datacenter de Riba d'Ave","operator":"REN;NOS","cap_mw":1.55,"fp_m2":2591,"type":"enterprise","osm_url":"https://www.openstreetmap.org/way/770046636","lat":41.403716,"lon":-8.3916834},{"id":"campus-c5b91df1233","name":"Equinix LS1","operator":"Equinix","cap_mw":1.47,"fp_m2":1630,"type":"colocation","osm_url":"https://www.openstreetmap.org/way/146664358","lat":38.7879452,"lon":-9.1233769},{"id":"campus-c66f432c827","name":"Seixal Colocation Site","operator":"TATA Communications","cap_mw":1.47,"fp_m2":2441,"type":"enterprise","osm_url":"https://www.openstreetmap.org/way/359617354","lat":38.6000775,"lon":-9.1598646},{"id":"campus-c0061c94a91","name":"Data Center IPT","operator":null,"cap_mw":0.12,"fp_m2":193,"type":"enterprise","osm_url":"https://www.openstreetmap.org/way/1256339859","lat":39.5997433,"lon":-8.3886393},{"id":"campus-c5b4f45ac86","name":"Data Center \u2014 PT","operator":null,"cap_mw":0.03,"fp_m2":54,"type":"enterprise","osm_url":"https://www.openstreetmap.org/way/1205572869","lat":41.1777381,"lon":-8.5951262}],"top_operators":[{"name":"NOS","count":1,"cap_mw":11.81,"type":"enterprise"},{"name":"Portugal Telecom","count":1,"cap_mw":2.82,"type":"enterprise"},{"name":"REN;NOS","count":1,"cap_mw":1.55,"type":"enterprise"},{"name":"Equinix","count":1,"cap_mw":1.47,"type":"colocation"},{"name":"TATA Communications","count":1,"cap_mw":1.47,"type":"enterprise"},{"name":"MEO","count":1,"cap_mw":0.0,"type":"enterprise"},{"name":"Funda\u00e7\u00e3o para a Ci\u00eancia e Tecnologia","count":1,"cap_mw":0.0,"type":"enterprise"}]},"RO":{"campus_count":6,"building_count":6,"total_footprint_m2":0,"type_counts":{"hyperscaler":0,"cloud":0,"colocation":0,"carrier":2,"enterprise":4},"top_campuses":[{"id":"campus-c165d92e84f","name":"Digi (RCS & RDS) Craiova","operator":"Digi Rom\u00e2nia SA","cap_mw":0,"fp_m2":0,"type":"enterprise","osm_url":"https://www.openstreetmap.org/node/6345712694","lat":44.3176067,"lon":23.8010226},{"id":"campus-c2926664c65","name":"ORANGE STORE","operator":"Orange","cap_mw":0,"fp_m2":0,"type":"carrier","osm_url":"https://www.openstreetmap.org/node/8745353247","lat":43.7752459,"lon":24.5045002},{"id":"campus-c5ae255055e","name":"PANOURI SOLARE REDEA DATACENTER","operator":null,"cap_mw":0,"fp_m2":0,"type":"enterprise","osm_url":"https://www.openstreetmap.org/node/9066692465","lat":44.0744736,"lon":24.2952627},{"id":"campus-c51469ea0d6","name":"RCAST Hosting","operator":null,"cap_mw":0,"fp_m2":0,"type":"enterprise","osm_url":"https://www.openstreetmap.org/node/10295346393","lat":45.426602,"lon":28.044302},{"id":"campus-c86c38e98dd","name":"Data Center \u2014 RO","operator":null,"cap_mw":0,"fp_m2":0,"type":"enterprise","osm_url":"https://www.openstreetmap.org/node/11232265750","lat":46.9573668,"lon":25.7598998},{"id":"campus-c84bebe4b7c","name":"Orange HDC Astra","operator":"Orange Rom\u00e2nia","cap_mw":0,"fp_m2":0,"type":"carrier","osm_url":"https://www.openstreetmap.org/node/12839478539","lat":45.6489942,"lon":25.6197119}],"top_operators":[{"name":"Digi Rom\u00e2nia SA","count":1,"cap_mw":0.0,"type":"enterprise"},{"name":"Orange","count":1,"cap_mw":0.0,"type":"carrier"},{"name":"Orange Rom\u00e2nia","count":1,"cap_mw":0.0,"type":"carrier"}]},"RS":{"campus_count":3,"building_count":3,"total_footprint_m2":7754,"type_counts":{"hyperscaler":0,"cloud":0,"colocation":0,"carrier":1,"enterprise":2},"top_campuses":[{"id":"campus-ca07e7eae4d","name":"Data Center \u2014 RS","operator":null,"cap_mw":4.18,"fp_m2":6976,"type":"enterprise","osm_url":"https://www.openstreetmap.org/way/1018552641","lat":44.0288852,"lon":20.9289415},{"id":"campus-c479ed45127","name":"A1 Data centar","operator":"A1","cap_mw":0.47,"fp_m2":778,"type":"carrier","osm_url":"https://www.openstreetmap.org/way/1022683867","lat":44.026205,"lon":20.934281},{"id":"campus-c7304e98012","name":"Elektra","operator":null,"cap_mw":0,"fp_m2":0,"type":"enterprise","osm_url":"https://www.openstreetmap.org/node/8566028198","lat":42.1498292,"lon":21.2985922}],"top_operators":[{"name":"A1","count":1,"cap_mw":0.47,"type":"carrier"}]},"SE":{"campus_count":18,"building_count":25,"total_footprint_m2":352773,"type_counts":{"hyperscaler":7,"cloud":0,"colocation":5,"carrier":0,"enterprise":6},"top_campuses":[{"id":"campus-cadd5083006","name":"Metas datacenter i Lule\u00e5","operator":"Meta","cap_mw":52.62,"fp_m2":87705,"type":"hyperscaler","osm_url":null,"lat":65.6198543,"lon":22.1139463},{"id":"campus-cb6b92ca636","name":"Microsoft","operator":"Microsoft","cap_mw":41.7,"fp_m2":69496,"type":"hyperscaler","osm_url":null,"lat":60.6359335,"lon":16.736855},{"id":"campus-cfb6d58743b","name":"Microsoft","operator":"Microsoft","cap_mw":41.39,"fp_m2":68986,"type":"hyperscaler","osm_url":null,"lat":60.6011018,"lon":17.0130739},{"id":"campus-ce43c281018","name":"Microsoft","operator":"Microsoft","cap_mw":27.87,"fp_m2":46457,"type":"hyperscaler","osm_url":null,"lat":60.6289268,"lon":17.1363147},{"id":"campus-c3f1862d6f0","name":"AWS eu-north-1 Availability Zone V","operator":"Amazon Web Services","cap_mw":8.37,"fp_m2":13950,"type":"hyperscaler","osm_url":"https://www.openstreetmap.org/way/721853421","lat":59.6495496,"lon":16.5802346},{"id":"campus-c826e154e5e","name":"AWS eu-north-1 Availability Zone E","operator":"Amazon Web Services","cap_mw":8.37,"fp_m2":13949,"type":"hyperscaler","osm_url":"https://www.openstreetmap.org/way/944875055","lat":59.3584236,"lon":16.6913702},{"id":"campus-c25a42a7d40","name":"AWS eu-north-1 Availability Zone K","operator":"Amazon Web Services","cap_mw":8.24,"fp_m2":13736,"type":"hyperscaler","osm_url":"https://www.openstreetmap.org/way/889389633","lat":58.9963187,"lon":16.2347869},{"id":"campus-c827ae5d443","name":"Data Center \u2014 SE","operator":null,"cap_mw":4.91,"fp_m2":8177,"type":"enterprise","osm_url":"https://www.openstreetmap.org/way/1039208765","lat":60.6113773,"lon":15.6094935}],"top_operators":[{"name":"Microsoft","count":3,"cap_mw":110.96,"type":"hyperscaler"},{"name":"Meta","count":1,"cap_mw":52.62,"type":"hyperscaler"},{"name":"Amazon Web Services","count":3,"cap_mw":24.98,"type":"hyperscaler"},{"name":"Equinix","count":1,"cap_mw":4.2,"type":"colocation"},{"name":"EcoDataCenter","count":1,"cap_mw":3.77,"type":"colocation"},{"name":"IP-Only","count":1,"cap_mw":1.11,"type":"enterprise"},{"name":"Bahnhof","count":3,"cap_mw":0.16,"type":"colocation"}]},"SI":{"campus_count":3,"building_count":3,"total_footprint_m2":1471,"type_counts":{"hyperscaler":0,"cloud":0,"colocation":0,"carrier":0,"enterprise":3},"top_campuses":[{"id":"campus-cda501b7d6a","name":"Gradbi\u0161\u010de ARNES","operator":"ARNES","cap_mw":0.88,"fp_m2":1458,"type":"enterprise","osm_url":"https://www.openstreetmap.org/way/1426151922","lat":46.565481,"lon":15.6067609},{"id":"campus-c206646edd6","name":"Data Center \u2014 SI","operator":null,"cap_mw":0.01,"fp_m2":13,"type":"enterprise","osm_url":"https://www.openstreetmap.org/way/1416696144","lat":46.558665,"lon":14.9294177},{"id":"campus-cf689a8ff00","name":"Arctur","operator":null,"cap_mw":0,"fp_m2":0,"type":"enterprise","osm_url":"https://www.openstreetmap.org/node/13395304893","lat":45.9567769,"lon":13.6637065}],"top_operators":[{"name":"ARNES","count":1,"cap_mw":0.88,"type":"enterprise"}]},"SK":{"campus_count":4,"building_count":4,"total_footprint_m2":91,"type_counts":{"hyperscaler":0,"cloud":0,"colocation":0,"carrier":0,"enterprise":4},"top_campuses":[{"id":"campus-cf2f2822bc9","name":"Data Center \u2014 SK","operator":null,"cap_mw":0.04,"fp_m2":62,"type":"enterprise","osm_url":"https://www.openstreetmap.org/way/169847218","lat":48.7407816,"lon":21.2282238},{"id":"campus-cd6bf68d1cd","name":"Centrum v\u00fdpo\u010dtovej techniky FHPV PU","operator":null,"cap_mw":0.02,"fp_m2":29,"type":"enterprise","osm_url":"https://www.openstreetmap.org/way/768237868","lat":48.988519,"lon":21.2356365},{"id":"campus-cfde31a0603","name":"Telekom","operator":"Slovak Telekom, a.s.","cap_mw":0,"fp_m2":0,"type":"enterprise","osm_url":"https://www.openstreetmap.org/node/6519090391","lat":48.6982253,"lon":21.2602044},{"id":"campus-c94fc34c2a6","name":"SWAN Datacentrum","operator":"SWAN","cap_mw":0,"fp_m2":0,"type":"enterprise","osm_url":"https://www.openstreetmap.org/node/11085093688","lat":48.1212577,"lon":17.0936939}],"top_operators":[{"name":"Slovak Telekom, a.s.","count":1,"cap_mw":0.0,"type":"enterprise"},{"name":"SWAN","count":1,"cap_mw":0.0,"type":"enterprise"}]},"TR":{"campus_count":14,"building_count":15,"total_footprint_m2":68929,"type_counts":{"hyperscaler":0,"cloud":0,"colocation":0,"carrier":1,"enterprise":13},"top_campuses":[{"id":"campus-cec1348c34d","name":"Turkcell Ankara Veri Merkezi","operator":"Turkcell","cap_mw":12.02,"fp_m2":20040,"type":"enterprise","osm_url":"https://www.openstreetmap.org/way/742363207","lat":39.798156,"lon":32.419173},{"id":"campus-ca5547a8842","name":"T\u00fcrk Telekom Esenyurt Veri Merkezi","operator":"T\u00fcrk Telekom","cap_mw":9.08,"fp_m2":15126,"type":"enterprise","osm_url":"https://www.openstreetmap.org/way/1375495905","lat":41.0719989,"lon":28.6570978},{"id":"campus-c23cef3d755","name":"Turkcell Avrupa Veri Merkezi","operator":"Turkcell","cap_mw":6.99,"fp_m2":11653,"type":"enterprise","osm_url":"https://www.openstreetmap.org/way/808990471","lat":41.2635053,"lon":27.9272323},{"id":"campus-ce1e05e1f13","name":"Turkcell Gebze Veri Merkezi","operator":"Turkcell Superonline","cap_mw":6.53,"fp_m2":10878,"type":"enterprise","osm_url":"https://www.openstreetmap.org/way/422730372","lat":40.8232613,"lon":29.4450049},{"id":"campus-cc3697e5735","name":"Vodafone Esenyurt Veri Merkezi","operator":"Vodafone T\u00fcrkiye","cap_mw":2.32,"fp_m2":3870,"type":"carrier","osm_url":"https://www.openstreetmap.org/way/1241724628","lat":41.0492407,"lon":28.6709028},{"id":"campus-c7de6a03ac3","name":"Mars Datacenter","operator":"Mars Datacenter","cap_mw":1.21,"fp_m2":1342,"type":"enterprise","osm_url":"https://www.openstreetmap.org/way/1453656362","lat":41.102835,"lon":29.0249446},{"id":"campus-c3ce0fc0a6d","name":"Turkcell Kartal Veri Merkezi","operator":"Turkcell","cap_mw":1.09,"fp_m2":3645,"type":"enterprise","osm_url":"https://www.openstreetmap.org/way/657222646","lat":40.8994359,"lon":29.2107194},{"id":"campus-ca0dc97c057","name":"PenDC Data Center Solutions","operator":"PenDC Data Center Solutions","cap_mw":0.74,"fp_m2":1232,"type":"enterprise","osm_url":"https://www.openstreetmap.org/way/1091677953","lat":40.3090574,"lon":29.0638451}],"top_operators":[{"name":"Turkcell","count":4,"cap_mw":20.32,"type":"enterprise"},{"name":"T\u00fcrk Telekom","count":1,"cap_mw":9.08,"type":"enterprise"},{"name":"Turkcell Superonline","count":1,"cap_mw":6.53,"type":"enterprise"},{"name":"Vodafone T\u00fcrkiye","count":1,"cap_mw":2.32,"type":"carrier"},{"name":"Mars Datacenter","count":1,"cap_mw":1.21,"type":"enterprise"},{"name":"PenDC Data Center Solutions","count":1,"cap_mw":0.74,"type":"enterprise"},{"name":"Hedef Global Bili\u015fim Teknolojileri Sanayi Ticaret Limited \u015eirketi","count":1,"cap_mw":0.0,"type":"enterprise"}]},"UA":{"campus_count":7,"building_count":7,"total_footprint_m2":5393,"type_counts":{"hyperscaler":1,"cloud":0,"colocation":0,"carrier":0,"enterprise":6},"top_campuses":[{"id":"campus-c4364920cd9","name":"\u0411\u0443\u0434\u0456\u0432\u043b\u044f \u043e\u0441\u043d\u043e\u0432\u043d\u043e\u0433\u043e \u043a\u043e\u043c\u0443\u043d\u0456\u043a\u0430\u0446\u0456\u0439\u043d\u043e\u0433\u043e \u0446\u0435\u043d\u0442\u0440\u0443","operator":null,"cap_mw":3.24,"fp_m2":5393,"type":"enterprise","osm_url":"https://www.openstreetmap.org/way/278667867","lat":51.3036619,"lon":30.0647447},{"id":"campus-c18b720c670","name":"Tucha","operator":"Tucha","cap_mw":0,"fp_m2":0,"type":"enterprise","osm_url":"https://www.openstreetmap.org/node/7873156431","lat":49.5520163,"lon":25.6071398},{"id":"campus-cc9423c1b89","name":"\u041f\u0430\u0440\u043a\u043e\u0432\u0438\u0439","operator":null,"cap_mw":0,"fp_m2":0,"type":"enterprise","osm_url":"https://www.openstreetmap.org/node/8075604281","lat":50.4493106,"lon":30.541238},{"id":"campus-cd72e65c4a3","name":"Data Center \u2014 UA","operator":null,"cap_mw":0,"fp_m2":0,"type":"enterprise","osm_url":"https://www.openstreetmap.org/node/9241724638","lat":48.4220276,"lon":22.3918872},{"id":"campus-cb99aba05be","name":"AirNet","operator":"\u0422\u041e\u0412 \"\u0410\u0406\u0420\u041d\u0415\u0422\"","cap_mw":0,"fp_m2":0,"type":"enterprise","osm_url":"https://www.openstreetmap.org/node/11119659852","lat":49.4547743,"lon":35.137511},{"id":"campus-c3e8b4f870f","name":"Apple Inc.","operator":"Apple Inc.","cap_mw":0,"fp_m2":0,"type":"hyperscaler","osm_url":"https://www.openstreetmap.org/node/11761004770","lat":49.942075,"lon":23.3834643},{"id":"campus-c1fae147c66","name":"Trident server hosting","operator":"lostyawolfer","cap_mw":0,"fp_m2":0,"type":"enterprise","osm_url":"https://www.openstreetmap.org/node/11891834487","lat":50.4499624,"lon":30.4922998}],"top_operators":[{"name":"Tucha","count":1,"cap_mw":0.0,"type":"enterprise"},{"name":"\u0422\u041e\u0412 \"\u0410\u0406\u0420\u041d\u0415\u0422\"","count":1,"cap_mw":0.0,"type":"enterprise"},{"name":"Apple Inc.","count":1,"cap_mw":0.0,"type":"hyperscaler"},{"name":"lostyawolfer","count":1,"cap_mw":0.0,"type":"enterprise"}]},"_note":"Generated from OSM data. Capacity estimates are area-based (JRC 2023 model). Operator field inferred from campus name where OSM tag was absent."}